order_id,customer_id,date,nearest_warehouse,shopping_cart,order_price,delivery_charges,customer_lat,customer_long,coupon_discount,order_total,season,is_expedited_delivery,distance_to_nearest_warehouse,latest_customer_review,is_happy_customer
ORD094145,ID4315827363,2019-01-17,Bakers,"[('Universe Note', 2), ('Alcon 10', 1)]",15850,91.6,-37.8117626,145.0004116,5,15149.1,Summer,True,0.4962,love being able to listen to music easily. still learning all the features available,True
ORD317704,ID0319860976,2019-07-14,Bakers,"[('Toshika 750', 1), ('Olivia x460', 1), ('iStream', 2)]",5845,66.86,-37.8004569,144.9975411,25,4450.61,Winter,False,1.0811,,True
ORD399913,ID0628175729,2019-08-18,Thompson,"[('Olivia x460', 2), ('Universe Note', 2)]",9350,46.58,-37.8127759,144.9483624,25,7059.08,Winter,False,0.1143,no cell signal. phone was a total dud. i couldnt get signal anywhere. not even to make emergency calls. very disappointed.,False
ORD183097,ID3543026234,2019-07-04,Thompson,"[('Thunder line', 1), ('Toshika 750', 2), ('Universe Note', 1)]",14270,74.94,-37.8133513,144.9510831,15,12204.44,Winter,False,0.361,"nice phone bought it because 2 months ago i bought the same phone from att and it was over priced and crashed in seven weeks. att would not help me, so i bought from digico, no problems, great price, great phone.",True
ORD179645,ID3967630078,2019-06-25,Thompson,"[('Universe Note', 2), ('iStream', 1), ('Alcon 10', 2)]",24950,77.4,-37.8178396,144.9527211,5,23779.9,Winter,True,0.7601,"great phone! great phone! takes beautiful pictures, and i've never had a phone where the battery lasts all day even with heavy use!",True
ORD104670,ID0250479896,2019-04-04,Bakers,"[('pearTV', 2), ('Toshika 750', 2), ('iAssist Line', 2), ('Lucent 330S', 1)]",26940,66.28,-37.8175106,145.0028707,15,22965.28,Autumn,False,1.0728,"she love it. it was a gift for my wife, she love it.",True
ORD043595,ID2263404686,2019-09-02,Nickolson,"[('Toshika 750', 2), ('Alcon 10', 2), ('Universe Note', 2), ('pearTV', 1)]",39750,83.49,-37.832478,144.9717312,10,35858.49,Spring,True,1.5573,it works well very nice phone. i like it.,True
ORD404395,ID0260907215,2019-05-20,Bakers,"[('Universe Note', 2), ('pearTV', 2)]",19520,83.66,-37.8269391,145.0094593,0,19603.66,Autumn,True,2.2633,nice phone! everything is working well! nice phone!,True
ORD054186,ID6167344581,2019-07-28,Nickolson,"[('Olivia x460', 2), ('Thunder line', 2), ('iAssist Line', 1)]",9035,62.83,-37.8158964,144.972506,15,7742.58,Winter,False,0.3972,great phone from what i've seen from reviews and what people are saying about it seems like a great phone. olivia has some of the best products and it makes it a convenient buy for people who don't want to pay an arm and a leg on the alcon,True
ORD427176,ID3218293551,2019-10-08,Thompson,"[('Toshika 750', 2), ('Lucent 330S', 2)]",11100,105.96,-37.804659,144.9534312,0,11205.96,Spring,False,1.0531,great phone ! excellent phone . for the cost this can compare to many high end phones on the market. iam very satisfied with this phone and the battery life is great.,True
ORD045157,ID0777786795,2019-11-08,Thompson,"[('iStream', 2), ('Candle Inferno', 1), ('Universe Note', 2), ('Alcon 10', 1)]",16580,78.67,-37.8055875,144.9536203,15,14171.67,Spring,False,0.9768,met my expectations. beautiful phone. took it international and it works well.,True
ORD103403,ID0145249634,2019-07-14,Nickolson,"[('Thunder line', 2), ('Olivia x460', 1)]",5585,65.61,-37.8167434,144.9609532,15,4812.86,Winter,False,0.7837,great phone excellent phone. no problems so far. i love it,True
ORD047128,ID0224738431,2019-07-23,Bakers,"[('Candle Inferno', 2), ('Thunder line', 2), ('Alcon 10', 2), ('Olivia x460', 1)]",24345,75.89,-37.8068758,144.9889895,15,20769.14,Winter,True,0.6497,it‚Äôs fun,True
ORD208306,ID0092149946,2019-06-10,Nickolson,"[('Alcon 10', 2), ('Olivia x460', 1), ('Toshika 750', 2)]",27765,63.41,-37.8221192,144.9568128,0,27828.41,Winter,True,1.1868,"one star 5 month after buy it, the phone is dead. not work.",False
ORD124994,ID0283334330,2019-11-05,Thompson,"[('iAssist Line', 2), ('pearTV', 1)]",10760,90.07,-37.8002551,144.9509615,0,10850.07,Spring,False,1.4241,when one is not like the other..$100 in the trash bought two of them and my husband had no problem with his but mine had all kinds of bugs and since i threw away all my info i ended up throwing the phone awaytoo because verizon could not help me with it either,False
ORD210903,ID0361227457,2019-04-29,Bakers,"[('Alcon 10', 2), ('Olivia x460', 1), ('iAssist Line', 1), ('Universe Note', 1)]",24800,84.39,-37.8011823,144.9768985,5,23644.39,Autumn,True,1.8875,five stars beautiful,True
ORD493029,ID2264456709,2019-06-03,Nickolson,"[('Olivia x460', 2), ('pearTV', 1), ('Candle Inferno', 1)]",9190,78.44,-37.8257491,144.9602124,10,8349.44,Winter,True,1.1439,"very good basic cell phone at a very low price this olivia phone has all the basic features. voice, text, address file, etc. and it's very small compared to some of the smart phone monsters that will barely fit in a man's pocket. just a darn good basic cell phone with a long battery life.",True
ORD422182,ID3204395231,2019-01-25,Thompson,"[('Candle Inferno', 2), ('iAssist Line', 2), ('Alcon 10', 1), ('pearTV', 1)]",20570,91.53,-37.8075427,144.9479927,0,20661.53,Summer,True,0.5769,jucesl07 very nice.,True
ORD239136,ID0420022675,2019-12-09,Bakers,"[('iStream', 1), ('Candle Inferno', 1), ('Alcon 10', 1)]",9530,67.93,-37.8111528,144.9970476,15,8168.43,Summer,False,0.2051,loved it!,True
ORD235141,ID4353884085,2019-02-16,Bakers,"[('Toshika 750', 1), ('Lucent 330S', 2), ('Candle Inferno', 2), ('Alcon 10', 2)]",25540,95.11,-37.8254016,145.0142044,5,24358.11,Summer,True,2.3926,battery does not work battery does not work,False
ORD076611,ID0364329179,2019-01-27,Thompson,"[('iAssist Line', 1), ('pearTV', 2)]",14845,81.81,-37.8007208,144.959719,15,12700.06,Summer,False,1.7344,"great phone great phone, just as good as alcons, it comes down to personal preference. i got over the alcon craze and i'm glad i made the switch.",True
ORD211488,ID0767586829,2019-02-27,Nickolson,"[('Candle Inferno', 2), ('iAssist Line', 2), ('Alcon 10', 2), ('Toshika 750', 1)]",27530,97.74,-37.8089395,144.9729125,25,20745.24,Summer,True,1.1147,five stars phone is in excellent condition and it is unlocked.,True
ORD012309,ID2174966079,2019-06-05,Thompson,"[('Toshika 750', 1), ('pearTV', 1)]",10630,62.6,-37.8169769,144.9532426,5,10161.1,Winter,False,0.7241,five stars excellent,True
ORD161008,ID0250933661,2019-01-12,Bakers,"[('Lucent 330S', 1), ('pearTV', 2)]",13850,98.84,-37.8218347,145.0032785,0,13948.84,Summer,True,1.4958,five stars great phone,True
ORD496552,ID0303448822,2019-01-04,Bakers,"[('iStream', 2), ('Alcon 10', 2)]",18200,74.36,-37.8237149,145.0153917,15,15544.36,Summer,False,2.3399,phone had issues staying on the phone worked for a month then just stopped working could not stay one.i returned it and receipt was confirmed.unfortunately i did not get the replacement that was purportedly sent to me as the sealed box received did not contain a phone.,False
ORD317456,ID1132069613,2019-06-25,Thompson,"[('pearTV', 1), ('Candle Inferno', 1), ('Toshika 750', 1)]",11060,61.25,-37.8128215,144.9431476,5,10568.25,Winter,False,0.3452,good good,True
ORD073038,ID0664374694,2019-08-18,Nickolson,"[('iStream', 2), ('Alcon 10', 2), ('Lucent 330S', 1)]",19430,72.01,-37.8207651,144.966875,25,14644.51,Winter,True,0.3372,terrific android phone great phone. still learning the android way. finely gave up on windows 10 mobile.,True
ORD232533,ID3121558877,2019-01-09,Bakers,"[('Candle Inferno', 2), ('Toshika 750', 2)]",9500,70.7,-37.8083323,145.0005123,0,9570.7,Summer,False,0.5,"no 5.8ghz wifi be aware of high speed 5.8ghz wifi is not available, very disappointed. 5.8ghz wifi is the must basic feature. generally ok.",True
ORD418128,ID4633638485,2019-06-15,Thompson,"[('Thunder line', 2), ('Alcon 10', 2), ('Toshika 750', 1), ('Olivia x460', 2)]",29030,49.01,-37.8065136,144.9440952,10,26176.01,Winter,False,0.7339,poor mans alcon x poor mans alcon x,False
ORD159351,ID0477079747,2019-04-07,Bakers,"[('iAssist Line', 2), ('Toshika 750', 1), ('iStream', 1), ('Universe Note', 1)]",12370,81.96,-37.8061899,144.9783206,15,10596.46,Autumn,True,1.5465,five stars great,True
ORD093171,ID4391708632,2019-02-13,Nickolson,"[('Lucent 330S', 2), ('iAssist Line', 1), ('iStream', 2)]",4985,78.49,-37.8221478,144.9599219,15,4315.74,Summer,True,0.9345,"don't good for me. really one piece the trash, don't work fine, the signal is poor, the camera don't work show me the message one time for use your dispositive is more hot now you need re start, for work, and the gps don't work appropriately.",False
ORD279206,ID0611984646,2019-10-16,Nickolson,"[('iStream', 1), ('Universe Note', 1), ('Toshika 750', 2), ('Lucent 330S', 2)]",14700,101.26,-37.8154488,144.9627673,15,12596.26,Spring,False,0.6918,great battery life the old lady loves it,True
ORD407046,ID0257505809,2019-04-20,Thompson,"[('Toshika 750', 2), ('Universe Note', 1), ('iStream', 1)]",12240,69.88,-37.7993102,144.963207,5,11697.88,Autumn,False,2.056,"great phone i was nervous buying a used phone online, but with the costs of phones these days i figured i'd try it out. product was in perfect condition and was reset. i have had it for a year now and unlike i phones, it still works as good as the day i got it. good job google!",True
ORD461966,ID0667681693,2019-12-02,Nickolson,"[('Universe Note', 1), ('Lucent 330S', 2), ('pearTV', 1), ('Thunder line', 2)]",16580,71.43,-37.8132802,144.9725408,5,15822.43,Summer,False,0.6474,"nephew loves it it's a decent phone, which my nephew loves. he has no complains, does everything with his phone.",True
ORD303723,ID4315827371,2019-08-21,Bakers,"[('iStream', 1), ('Universe Note', 2), ('Thunder line', 1)]",9230,64.13,-37.8145067,144.9999352,10,8371.13,Winter,True,0.6505,very good one. this one is perfect. i bought this for my wife and she liked very much. good performance and camera is really good. olivia rocks.,True
ORD479374,ID4294474624,2019-04-19,Nickolson,"[('Toshika 750', 2), ('Alcon 10', 2), ('Universe Note', 1)]",29990,67.99,-37.805401,144.9737077,25,22560.49,Autumn,False,1.5135,liberados de fabrica perfecto,True
ORD063690,ID0581760704,2019-09-27,Thompson,"[('Olivia x460', 2), ('Alcon 10', 2), ('iAssist Line', 2), ('Candle Inferno', 2)]",25660,83.52,-37.8044038,144.9289851,0,25743.52,Spring,True,1.8376,worked like a charm its all good,True
ORD040843,ID0385176510,2019-05-01,Bakers,"[('iStream', 1), ('Toshika 750', 1), ('iAssist Line', 2)]",8920,68.7,-37.7989197,144.9839018,10,8096.7,Autumn,False,1.5853,battery life great phone! good value! excellent battery life!,True
ORD401492,ID0387153055,2019-01-29,Thompson,"[('Alcon 10', 1), ('Lucent 330S', 2), ('Olivia x460', 1)]",12635,78.37,-37.8002975,144.9497049,10,11449.87,Summer,False,1.397,work great through. looked like new it didn't come with a sim card but they gave me one free at the sprint store. work great through. looked like new.,True
ORD412247,ID4735688178,2019-02-17,Thompson,"[('Alcon 10', 2), ('iStream', 1)]",18050,96.58,-37.8031951,144.9491357,5,17244.08,Summer,False,1.0706,able to use phone internationally nice international dual sim phone,True
ORD227448,ID0702452622,2019-09-07,Thompson,"[('Universe Note', 1), ('Toshika 750', 2), ('pearTV', 2), ('Olivia x460', 1)]",25935,103.94,-37.8037581,144.9434022,0,26038.94,Spring,True,1.0435,"king of the mid range phones great design, super fast and unbeatable price. really happy i bought it.",True
ORD153434,ID1888086812,2019-11-01,Thompson,"[('iStream', 2), ('Thunder line', 2)]",4660,95.04,-37.8001285,144.9623913,5,4522.04,Spring,True,1.9406,no recomiendo no trabaja bien tiene mucho defectos,False
ORD452701,ID6197211422,2019-04-04,Thompson,"[('Candle Inferno', 2), ('iStream', 2), ('iAssist Line', 1)]",3385,81.41,-37.8172503,144.9340609,0,3466.41,Autumn,True,1.2523,great phone. great phone. needs to be recharged daily.,True
ORD196067,ID0912832679,2019-08-04,Nickolson,"[('Toshika 750', 1), ('iStream', 1), ('Thunder line', 1)]",6650,76.73,-37.8177602,144.9788454,10,6061.73,Winter,True,0.8226,it's alright to browse the internet and watch videos.,True
ORD475982,ID0591351805,2019-08-13,Nickolson,"[('iAssist Line', 1), ('pearTV', 1), ('Olivia x460', 1), ('Candle Inferno', 2)]",10620,65.12,-37.8209535,144.9570374,0,10685.12,Winter,True,1.1313,"it worked very well for me the battery lasts more than one day, it is fast, the photos are of good resolution",True
ORD491467,ID4245791604,2019-10-23,Thompson,"[('Universe Note', 1), ('Alcon 10', 1)]",12400,111.04,-37.8012547,144.9626936,5,11891.04,Spring,True,1.8719,... expected - not top of the line but works fine for my as expected - not top of the line but works fine for my needs,True
ORD065391,ID1847879568,2019-01-31,Bakers,"[('Candle Inferno', 2), ('pearTV', 2)]",13480,102.47,-37.8129073,145.0130137,10,12234.47,Summer,True,1.597,five stars delivered on time and am very happy with the product,True
ORD284881,ID0575434387,2019-09-09,Nickolson,"[('Olivia x460', 2), ('Candle Inferno', 1)]",2880,67.16,-37.8204694,144.9850547,15,2515.16,Spring,False,1.3792,"tabs button always activates by itself the tabs button always activates without me touching it, its anoying",False
ORD074361,ID3276387456,2019-10-27,Thompson,"[('Alcon 10', 1), ('Thunder line', 2), ('Lucent 330S', 2), ('iStream', 2)]",16070,102.39,-37.8180912,144.9468787,15,13761.89,Spring,True,0.6033,"great deal the phone is a just a tad slow at times, but so is ever other phone i have used. great deal. nicely made.",True
ORD487185,ID2975216739,2019-10-28,Thompson,"[('Universe Note', 1), ('pearTV', 2), ('Thunder line', 1), ('Lucent 330S', 2)]",20710,108.31,-37.7992678,144.9591998,10,18747.31,Spring,True,1.8344,bought this for our granddaughter. she absolutely loves it! easy for her to learn how to operate.,True
ORD107510,ID1833110274,2019-04-07,Nickolson,"[('Toshika 750', 2), ('Thunder line', 1)]",10820,78.73,-37.8191333,144.9614422,15,9275.73,Autumn,True,0.7156,"in excellent condition and the expected time the phone came functioning properly, in excellent condition and the expected time. i recommend it!",True
ORD168746,ID0575386408,2019-01-19,Nickolson,"[('pearTV', 1), ('Olivia x460', 1)]",7535,78.17,-37.8200022,144.9844458,15,6482.92,Summer,False,1.3191,no scratch on screen phone came in excellent condition,True
ORD028668,ID0703557084,2019-06-10,Thompson,"[('iStream', 2), ('Olivia x460', 1), ('Alcon 10', 1)]",10475,77.12,-37.806173,144.9539356,0,10552.12,Winter,True,0.9425,battery life a lot easier to get a low bat than the original ones,True
ORD002834,ID0723965013,2019-12-29,Bakers,"[('Thunder line', 2), ('pearTV', 2), ('Universe Note', 2)]",23880,74.7,-37.8040822,145.0052811,0,23954.7,Summer,False,1.102,this is my second digico inferno. my first was the 7 inch and love the new 8 hd.,True
ORD222179,ID6167441011,2019-12-30,Thompson,"[('Universe Note', 2), ('iAssist Line', 1), ('pearTV', 1), ('Thunder line', 1)]",17615,78.93,-37.8070319,144.9597603,0,17693.93,Summer,False,1.2807,best phone i have owned phone came in timely manner. works great.,True
ORD263340,ID0575390873,2019-02-25,Nickolson,"[('Candle Inferno', 2), ('Thunder line', 2), ('pearTV', 2), ('iAssist Line', 2)]",22290,97.91,-37.8204874,144.9848884,10,20158.91,Summer,True,1.365,looks like new this phone looks and feels brand new battery life is very good. operates correctly. activation was very simple through the verizon store.,True
ORD191715,ID0319157921,2019-12-21,Nickolson,"[('iStream', 1), ('Olivia x460', 2), ('iAssist Line', 2), ('Alcon 10', 2)]",24950,65.65,-37.8056468,144.9682151,10,22520.65,Summer,False,1.4461,not working at all it switch of and on it self says internationally unlocked but it is flashed with unauthrized software and it is locked.,False
ORD056343,ID0781109215,2019-05-12,Bakers,"[('Universe Note', 2), ('pearTV', 1), ('Candle Inferno', 2)]",14070,55.76,-37.8172189,145.0162981,25,10608.26,Autumn,False,2.0195,"at first the phone was only charging up 80% but ... at first the phone was only charging up 80% but just decided to use it and now after few weeks, it doesnt work at all.",False
ORD026627,ID1594632471,2019-06-14,Nickolson,"[('Thunder line', 1), ('Alcon 10', 1), ('pearTV', 2)]",23750,50.04,-37.8205809,144.9791177,15,20237.54,Winter,False,0.8698,"touch screen unresponsive unresponsive to finger touch. made swipe feature useless. coming from the note5, i'm going back to it. very unhappy with the phone....",False
ORD163914,ID3085953489,2019-10-15,Bakers,"[('Toshika 750', 1), ('Olivia x460', 2), ('Alcon 10', 2), ('Lucent 330S', 2)]",27130,84.97,-37.8231848,144.9880665,0,27214.97,Spring,False,1.5976,"i'm satisified with the product. it was actually such a good purchase, the phones arrived in good condition everything was as expected, 100% recomended.",True
ORD472108,ID0331420064,2019-11-22,Bakers,"[('Toshika 750', 1), ('Candle Inferno', 1), ('iAssist Line', 1), ('Lucent 330S', 1)]",8205,80.29,-37.8203354,145.0017179,0,8285.29,Spring,False,1.2845,great phone! the phone arrived quickly. it looks brand new. totally flawless you can't find anything wrong with it. i could not be happier. highly recommend!!,True
ORD188031,ID0224757682,2019-03-03,Bakers,"[('Alcon 10', 1), ('iAssist Line', 1)]",11175,48.66,-37.8073834,144.9941797,25,8429.91,Autumn,True,0.3052,"it looks new, but it's locked by verizon it looks new, but it's locked by verizon. i was written ""unlocked"" on the description when i bought it",False
ORD352283,ID3106294939,2019-02-03,Thompson,"[('Candle Inferno', 2), ('Olivia x460', 1)]",2085,79.92,-37.8062321,144.9322668,5,2060.67,Summer,True,1.4862,five stars excellent!!!,True
ORD445991,ID6167441052,2019-08-26,Nickolson,"[('Candle Inferno', 1), ('Lucent 330S', 2)]",2890,78.84,-37.8113673,144.9617633,25,2246.34,Winter,True,1.0566,long life battery i wanted a small fone to slip in my pocket and i like the fact thats its a flip cover protects the main screen. its cute & the plan is cheap. in fact i have 3 gustos. it has the same basic features as those touch screen ones do. and so so easy to use. its a must have.,True
ORD401982,ID0441996141,2019-12-12,Bakers,"[('iAssist Line', 2), ('Thunder line', 1)]",6630,94.78,-37.819742,145.001089,0,6724.78,Summer,True,1.2009,five stars good product and service,True
ORD424740,ID1463620953,2019-06-13,Bakers,"[('Universe Note', 2), ('Candle Inferno', 1), ('Lucent 330S', 1), ('iStream', 1)]",8710,78.97,-37.8186231,145.0003569,25,6611.47,Winter,True,1.0608,pixel is best phone on the market by far i love my pixel!,True
ORD107209,ID4315827378,2019-01-08,Bakers,"[('Alcon 10', 2), ('Toshika 750', 2), ('Universe Note', 2)]",33440,99.12,-37.8216329,144.9986131,15,28523.12,Summer,True,1.3291,four stars good for cuba,True
ORD042930,ID2383211237,2019-08-11,Nickolson,"[('Lucent 330S', 2), ('Thunder line', 2)]",6820,59.65,-37.8173262,144.9673987,25,5174.65,Winter,True,0.2362,"connection disappointment -- deal breaker cord connection is not the standard android type. i have continued to use olivia products for our entire family because we all can use the same chargers. don't have to keep several different car chargers in all our cars, for example. very disappointed--this is a deal breaker.",False
ORD288391,ID1492169300,2019-02-05,Thompson,"[('Universe Note', 1), ('iAssist Line', 2), ('Candle Inferno', 1), ('Toshika 750', 1)]",12650,69.56,-37.8017022,144.9636299,5,12087.06,Summer,False,1.9008,the phone will not last very long. this phone only lasted me about 4 months then it started doing some reboot thing and i had to replace it. but i just got a store brought phone instead.,False
ORD215918,ID3191033048,2019-06-12,Nickolson,"[('pearTV', 2), ('Lucent 330S', 1), ('Toshika 750', 1), ('Alcon 10', 1)]",27120,78.29,-37.8111043,144.9691889,10,24486.29,Winter,True,0.8345,meh it's alright but very limited to what other phones can do within the same price range. it does the basic functions but be ready for headache when dealing with the storage.,True
ORD353357,ID2700682439,2019-10-28,Nickolson,"[('Candle Inferno', 2), ('Thunder line', 2), ('Lucent 330S', 1)]",6450,77.13,-37.823317,144.976448,0,6527.13,Spring,False,0.8026,best regards. alvaro i need the power plug to reconnect the charger because i am in the usa not in europe. it is a second one to plug it into the outlet on the wall. my phone came without that second one. calaxyj5 sm-j500h...emotional version. thanks. best regards. alvaro prada,True
ORD129829,ID0161467126,2019-10-19,Thompson,"[('Toshika 750', 2), ('iStream', 2), ('iAssist Line', 2)]",13390,78.52,-37.8131974,144.958884,25,10121.02,Spring,False,1.0407,five stars good quality phone for its price! now only if they made a black tablet hahah,True
ORD294680,ID3106293104,2019-01-27,Thompson,"[('Alcon 10', 1), ('iAssist Line', 1)]",11175,63.12,-37.8064176,144.9324749,25,8444.37,Summer,False,1.4602,"the cell phone does not come only the box, the cell phone does not come only the box, it seems strange that i was not sent",False
ORD187166,ID4283908173,2019-08-14,Bakers,"[('iAssist Line', 1), ('Universe Note', 2), ('Alcon 10', 2), ('iStream', 1)]",27175,66.21,-37.8110224,145.0051534,15,23164.96,Winter,False,0.88,"excelente producto perfecto, muy buen celular para un uso moderado de aplicaciones.",True
ORD076804,ID0227324713,2019-10-22,Bakers,"[('Thunder line', 1), ('Toshika 750', 1), ('Candle Inferno', 1)]",6930,100.37,-37.8042242,144.9934496,5,6683.87,Spring,True,0.6614,"original works perfectly. great conditions. it wasn't in the original package and didn't bring the earphones, but other than that, great deal!",True
ORD189515,ID0356215206,2019-03-01,Nickolson,"[('Candle Inferno', 2), ('Lucent 330S', 2), ('Alcon 10', 2)]",21220,68.79,-37.803536,144.9648914,15,18105.79,Autumn,True,1.7257,not a fan this screen is terrible. only had the phone for a couple days and the screen is deeply scratched.,False
ORD176248,ID1462398911,2019-10-12,Bakers,"[('Alcon 10', 1), ('iStream', 1), ('Lucent 330S', 1), ('iAssist Line', 2)]",14780,109.95,-37.8199587,145.0127352,0,14889.95,Spring,True,1.8971,it's brand new love the cell phone!,True
ORD438300,ID0456876517,2019-04-21,Thompson,"[('pearTV', 1), ('Lucent 330S', 1), ('Universe Note', 2)]",14440,69.51,-37.7976169,144.9528668,15,12343.51,Autumn,False,1.7519,this tablet works as well or better than my ipad. it is quicker and simpler to use with better speed and reaction.,True
ORD397166,ID4416171557,2019-02-17,Thompson,"[('Lucent 330S', 2), ('Toshika 750', 2), ('Olivia x460', 2)]",13550,94.47,-37.8054831,144.9498234,5,12966.97,Summer,True,0.8362,great phone!! had to replace my stolen phone and they delivered on time and product was as described and works well.,True
ORD361032,ID2992212332,2019-08-31,Nickolson,"[('Toshika 750', 2), ('iStream', 2)]",8940,64.51,-37.8216678,144.9737127,25,6769.51,Winter,False,0.5009,four stars nice phone,True
ORD332135,ID2975262283,2019-05-31,Bakers,"[('Candle Inferno', 2), ('Thunder line', 1), ('Olivia x460', 2), ('iAssist Line', 2)]",9940,81.96,-37.8237048,144.9970525,25,7536.96,Autumn,True,1.5344,perfect perfecto,True
ORD026304,ID5002595071,2019-08-31,Thompson,"[('Toshika 750', 1), ('iAssist Line', 1), ('pearTV', 1)]",12855,76.03,-37.8116493,144.9528672,25,9717.28,Winter,True,0.5225,"easily activated with att easily activated with att. battery is great. works as described. as per other reviews, great budget phone with minor negatives.",True
ORD238062,ID0387152991,2019-11-24,Thompson,"[('Olivia x460', 2), ('pearTV', 1), ('Universe Note', 1), ('iAssist Line', 1)]",14435,101.09,-37.8053849,144.94865,5,13814.34,Spring,True,0.8231,pretty sweet device pretty sweet device,True
ORD346741,ID6167413255,2019-02-25,Nickolson,"[('Toshika 750', 1), ('iStream', 1), ('Olivia x460', 1), ('Candle Inferno', 1)]",6125,71.5,-37.8129552,144.9680058,0,6196.5,Summer,True,0.6423,works great. as described. works great.,True
ORD152849,ID0777788328,2019-01-27,Thompson,"[('iAssist Line', 2), ('Toshika 750', 2)]",13090,73.13,-37.806898,144.9541113,15,11199.63,Summer,False,0.8927,five stars good deal,True
ORD018942,ID0767730103,2019-01-28,Nickolson,"[('pearTV', 2), ('iAssist Line', 1)]",14845,83.81,-37.8045761,144.9705632,0,14928.81,Summer,True,1.5631,olivia s7 edge i dislike it since the phone that was sent had bad motherboard,False
ORD117974,ID0302135273,2019-10-04,Bakers,"[('iStream', 2), ('iAssist Line', 1), ('Olivia x460', 1), ('Candle Inferno', 2)]",4610,105.13,-37.8077748,144.9821599,5,4484.63,Spring,True,1.1759,"happy customer i waited a bit to review this phone. i am very happy with this phone, yes it did take a bit to get use to the ""edge"" aspect, but i am learning quickly. very nice phone.",True
ORD116172,ID2948774576,2019-09-25,Nickolson,"[('Lucent 330S', 2), ('Thunder line', 1), ('iAssist Line', 1), ('pearTV', 2)]",19485,103.84,-37.809039,144.9719353,25,14717.59,Spring,True,1.0842,love love love this phone this phone is easy to use i love the large size and the pictures it takes are photographer quality. i use it more like a computer as well as watching movies and videos and electronic reading.,True
ORD175137,ID6167440987,2019-02-01,Nickolson,"[('Toshika 750', 2), ('Candle Inferno', 1)]",9070,74.67,-37.8133626,144.962603,25,6877.17,Summer,False,0.8441,awesome phone! s7 is best ever. the only reason i know this phone is not brand new is they had to tell me.,True
ORD478244,ID1112411389,2019-08-07,Thompson,"[('Candle Inferno', 2), ('iAssist Line', 1), ('Universe Note', 2)]",9985,83.9,-37.8030115,144.9295058,5,9569.65,Winter,True,1.8822,"you may find yourself being productive. midrange gold. great upgrade, decent price, great features. i'm already managing to get ridiculous productivity with this device. a single bluetooth keyboard and i could replace three computers.",True
ORD117156,ID0282852909,2019-09-02,Bakers,"[('Universe Note', 2), ('Lucent 330S', 2), ('Olivia x460', 2)]",11810,83.02,-37.800252,145.0095156,0,11893.02,Spring,False,1.6597,i love it i love i love üòçüòçüòçüòçüòç this price for ... i love it i love i love üòçüòçüòçüòçüòç this price for the lucentrola came so in handy after my original lucent z play phone screen was broken i'm so happy on my purchase thanks,True
ORD268345,ID0711785484,2019-10-03,Thompson,"[('iAssist Line', 1), ('pearTV', 2), ('Lucent 330S', 1), ('Candle Inferno', 2)]",16935,97.1,-37.8165514,144.9458975,10,15338.6,Spring,True,0.4438,five stars awesome phone for the money! i was ver very pleased on condition and the shipment! would definitely recommend this!,True
ORD244798,ID6167357881,2019-04-20,Nickolson,"[('Thunder line', 2), ('iAssist Line', 1)]",6585,62.45,-37.8128255,144.9738022,10,5988.95,Autumn,True,0.7431,one star i did not like it because it did not work,False
ORD463603,ID0266737786,2019-01-22,Nickolson,"[('Toshika 750', 1), ('Lucent 330S', 2), ('Alcon 10', 2), ('pearTV', 2)]",37300,60.89,-37.822152,144.980623,0,37360.89,Summer,True,1.051,it's so slow it's so slow,False
ORD309139,ID0055846402,2019-05-08,Bakers,"[('Candle Inferno', 2), ('iStream', 1), ('Universe Note', 2), ('Olivia x460', 1)]",9135,83.46,-37.8109297,145.0153861,15,7848.21,Autumn,True,1.7755,satisfied customer i realky like this purchase!,True
ORD251998,ID6143901733,2019-04-05,Bakers,"[('iAssist Line', 1), ('iStream', 2), ('Candle Inferno', 1)]",2955,68.87,-37.8028084,145.0041919,0,3023.87,Autumn,False,1.123,five stars perfect. came just as i expected.,True
ORD204055,ID2006034697,2019-08-04,Bakers,"[('Olivia x460', 1), ('iStream', 1), ('Thunder line', 2), ('Candle Inferno', 2)]",6595,66.7,-37.8010605,144.9984193,15,5672.45,Winter,False,1.0334,"good alternative mobile phone great phone and well priced. a good alternative for the i-phone. many good features, wi-fi, internet, lots of good applications, voice to text and voice commands work very well.",True
ORD465848,ID2975231284,2019-04-08,Thompson,"[('iStream', 1), ('Candle Inferno', 2), ('Alcon 10', 2), ('Thunder line', 2)]",23270,55.01,-37.8005257,144.9585961,10,20998.01,Autumn,False,1.6901,pretty tangerine color. first tablet had bad earphone jack; second product would not connect to wifi no matter where we tried. all of our other tablets work fine.we will order another digico inferno tablet.,False
ORD146243,ID1492416105,2019-07-22,Thompson,"[('Alcon 10', 2), ('iAssist Line', 2)]",22350,70.94,-37.8009419,144.9563946,0,22420.94,Winter,False,1.5421,"this is an affordable tablet and works well, you just have to deal with a lot of advertising.",True
ORD200162,ID3293340273,2019-10-24,Nickolson,"[('Lucent 330S', 1), ('Candle Inferno', 1), ('iAssist Line', 2)]",6110,106.2,-37.8245941,144.9821862,10,5605.2,Spring,True,1.2963,very pleased the phone was received in almost new condition. i'm very pleased with the purchase.,True
ORD483653,ID0122749619,2019-12-27,Thompson,"[('iStream', 1), ('Toshika 750', 2)]",8790,69.47,-37.8133627,144.9416517,0,8859.47,Summer,False,0.4825,absolutely love this product so easy to use better than scrolling channels.,True
ORD240364,ID1964021893,2019-08-05,Nickolson,"[('Toshika 750', 2), ('Alcon 10', 2), ('Thunder line', 2)]",30900,46.59,-37.8175952,144.9667285,5,29401.59,Winter,False,0.272,"one star 4g didn't work, picture messaging didn't work",False
ORD039743,ID5002595130,2019-03-29,Thompson,"[('Universe Note', 1), ('iStream', 2)]",3750,65.24,-37.81192,144.9535766,10,3440.24,Autumn,False,0.5784,"great buy great phone, looks and functions good as new. comes with everything you need and i was skeptical at first about it but it worked out perfectly",True
ORD211681,ID1288940365,2019-02-01,Thompson,"[('iStream', 2), ('Toshika 750', 2), ('Lucent 330S', 2)]",11400,93.52,-37.8187901,144.9529565,15,9783.52,Summer,True,0.8554,"i'm very happy with this phone i'm very happy with this phone! the most efficient android i've had so far, without having to spend ridiculous alcon money.",True
ORD063090,ID6167191717,2019-01-03,Thompson,"[('Toshika 750', 2), ('Candle Inferno', 2)]",9500,59.76,-37.8191782,144.9542293,10,8609.76,Summer,False,0.9596,not worth the issues over heats rapidly,False
ORD127357,ID2781290206,2019-07-05,Thompson,"[('pearTV', 1), ('iStream', 2), ('iAssist Line', 2)]",11060,80.94,-37.82237,144.9552121,25,8375.94,Winter,True,1.2953,five stars great phone works wonderful.,True
ORD035471,ID0373645976,2019-10-07,Thompson,"[('iStream', 1), ('Olivia x460', 2)]",2600,68.1,-37.8088654,144.9291692,25,2018.1,Spring,False,1.6303,"very slow and buggy bluetooth and wifi continually lose connectivity. apps open rather slowly, imo. i can't really recommend it. sending mine back.",False
ORD471289,ID1271016162,2019-06-10,Thompson,"[('Universe Note', 2), ('pearTV', 2), ('Alcon 10', 1), ('iStream', 1)]",28620,70.1,-37.8177706,144.9317783,15,24397.1,Winter,False,1.4595,"great phone for the money have had this phone for about 6 months. no complaints that i wasn't already aware of. if i had to do it again i might reconsider the narrow 19:9 aspect ratio as my eyes aren't what they used to be and pinch to zoom in portrait is a bit narrow. so, 99.99% happy!",True
ORD433948,ID0758610654,2019-11-28,Thompson,"[('Alcon 10', 1), ('Olivia x460', 1)]",10175,104.79,-37.8214743,144.9456271,0,10279.79,Spring,True,0.9879,works perfectly,True
ORD416858,ID0711761815,2019-11-30,Thompson,"[('Toshika 750', 1), ('iStream', 1), ('Candle Inferno', 1)]",4900,96.91,-37.8148837,144.9448938,25,3771.91,Spring,True,0.3117,microphone issue good expect the microphone started bugging out a few weeks in,True
ORD122694,ID4326586217,2019-10-08,Nickolson,"[('Thunder line', 2), ('Universe Note', 2), ('iAssist Line', 2)]",15710,74.2,-37.8161564,144.9641293,15,13427.7,Spring,False,0.5486,"i lost my money excellent, was received, but not released, as i said, i lost my money excellent ,",True
ORD449911,ID0387908964,2019-05-01,Nickolson,"[('iAssist Line', 2), ('Thunder line', 2)]",8810,77.87,-37.8214441,144.9635867,5,8447.37,Autumn,True,0.6129,five stars perfect,True
ORD225179,ID0777801619,2019-05-03,Thompson,"[('Olivia x460', 1), ('pearTV', 2), ('Lucent 330S', 1)]",15075,80.4,-37.8055395,144.955269,10,13647.9,Autumn,True,1.0727,"all is working fine i received my cellphone on time. it is working very well so far. it is bigger than previous models, but slimmer and light. i am happy with it.",True
ORD022532,ID0641028629,2019-02-27,Thompson,"[('Lucent 330S', 1), ('Olivia x460', 1)]",2455,89.43,-37.8105663,144.9433791,10,2298.93,Summer,True,0.4004,good value gave to friend,True
ORD392702,ID0579989448,2019-11-26,Thompson,"[('Thunder line', 2), ('Toshika 750', 2)]",13000,77.88,-37.8059635,144.9408821,10,11777.88,Spring,False,0.9241,great phone love this phone,True
ORD357087,ID4419701256,2019-05-30,Thompson,"[('Thunder line', 2), ('Universe Note', 2), ('Lucent 330S', 2), ('iAssist Line', 2)]",18170,54.16,-37.8025675,144.9637691,5,17315.66,Autumn,False,1.8501,"two stars phone was not unlocked, luckily i had at&t already.",False
ORD394689,ID0575386097,2019-09-06,Nickolson,"[('iAssist Line', 1), ('pearTV', 2)]",14845,105.25,-37.8205902,144.9830457,25,11239.0,Spring,True,1.2073,four stars a great deal.,True
ORD343377,ID0746908742,2019-10-13,Bakers,"[('Lucent 330S', 2), ('Universe Note', 2), ('Thunder line', 1), ('iAssist Line', 2)]",15990,110.07,-37.8194075,145.01463,10,14501.07,Spring,True,2.0019,"cell arrived in perfect condition however i do not get the color you ... cell arrived in perfect condition however i do not get the color you requested, i wanted to get black and blue.",True
ORD204744,ID0579973149,2019-01-29,Thompson,"[('iAssist Line', 1), ('Alcon 10', 1)]",11175,52.07,-37.8115652,144.945775,25,8433.32,Summer,False,0.1678,"you have too sale a good product, but no cell phone in bad condition üëéüèª",False
ORD015273,ID0723958666,2019-09-22,Bakers,"[('Thunder line', 1), ('Universe Note', 1)]",5630,78.84,-37.8025074,145.0050736,0,5708.84,Spring,False,1.2017,"very pleased with it first time i have ever ordered a phone, very pleased with it. it's a great phone and it saved me a ton not getting it from verizon. no monthly fee for it. it might be an older model, but it's a wonderful phone.",True
ORD265679,ID5257193656,2019-04-18,Nickolson,"[('Candle Inferno', 1), ('Lucent 330S', 1), ('Universe Note', 2)]",8560,52.03,-37.8127872,144.9770046,10,7756.03,Autumn,False,0.9207,phone quit working phone quit working after 1 month of service,False
ORD271579,ID2975216733,2019-10-03,Thompson,"[('Toshika 750', 2), ('Candle Inferno', 2), ('Alcon 10', 2)]",27400,108.91,-37.7993218,144.9590309,15,23398.91,Spring,True,1.8209,love it! small blemish on screen but u can‚Äôt even see it unless u stare at it 100% battery life left like brand new,True
ORD222291,ID0561538883,2019-07-01,Bakers,"[('Candle Inferno', 1), ('Toshika 750', 1), ('pearTV', 1), ('iAssist Line', 1)]",13285,64.9,-37.8004061,145.0055594,15,11357.15,Winter,True,1.4017,get one with a warranty. thin line of pixels running through the screen about quarter inch away from right side of screen.,False
ORD395741,ID6167344577,2019-02-24,Nickolson,"[('Alcon 10', 1), ('Lucent 330S', 1), ('iAssist Line', 2)]",14630,68.45,-37.8159106,144.973171,5,13966.95,Summer,False,0.4366,five stars great phone. the fact that it was only 20 bucks makes it even better.,True
ORD042234,ID6167441003,2019-08-13,Thompson,"[('iAssist Line', 2), ('Candle Inferno', 2)]",5310,69.14,-37.8092064,144.9606935,25,4051.64,Winter,True,1.2588,more phone for the value than some flagships basically a better huawei p30 lite for $50 less if youre lucky and wait enough,True
ORD190114,ID0245807244,2019-11-22,Thompson,"[('Olivia x460', 1), ('Alcon 10', 1), ('Lucent 330S', 1), ('Candle Inferno', 2)]",12265,109.5,-37.7993419,144.9590456,15,10534.75,Spring,True,1.8198,"great phone!!! gets the job done!!! for the low cost, this phone is up to par in every aspect.",True
ORD379755,ID5668043852,2019-05-27,Bakers,"[('Toshika 750', 2), ('Lucent 330S', 2)]",11100,54.36,-37.8024092,145.0158325,0,11154.36,Autumn,False,1.999,"se congela la pantalla tengo problemas con este tel√©fono, ya que desde el inicio de su compra se le congela la pantalla, no lo recomiendo es muy malo",False
ORD428897,ID0176736472,2019-01-01,Nickolson,"[('pearTV', 1), ('Alcon 10', 1)]",15260,88.28,-37.8141197,144.9681146,5,14585.28,Summer,False,0.5139,adequate connections love the make,True
ORD299269,ID4716795441,2019-01-26,Thompson,"[('iAssist Line', 2), ('Lucent 330S', 2), ('iStream', 1), ('Thunder line', 1)]",9240,94.18,-37.8188621,144.9534438,10,8410.18,Summer,True,0.8882,"grest to use as a wifi only device. great cheap phone to use as a wifi device. i don't have verizon, so i use this as a wifi device and its good.",True
ORD326445,ID4633770173,2019-07-14,Thompson,"[('Thunder line', 1), ('Alcon 10', 2)]",20080,65.02,-37.8075916,144.9453594,5,19141.02,Winter,False,0.5853,"great camera is great. however, the battery doesn't last that long. overall, this phone is good for this price.",True
ORD437038,ID0588236715,2019-11-20,Nickolson,"[('Universe Note', 2), ('Toshika 750', 1), ('iAssist Line', 2)]",15670,86.64,-37.8113228,144.9734694,25,11839.14,Spring,True,0.8798,poor never grabbed coverage.,False
ORD167533,ID3945796036,2019-12-07,Thompson,"[('Universe Note', 2), ('iAssist Line', 1), ('Candle Inferno', 1), ('pearTV', 1)]",15865,94.29,-37.818269,144.9537713,15,13579.54,Summer,True,0.8576,"satisfied looks almost brand new! i have to buy used phones a lot, definitely happy with this one",True
ORD008641,ID0370242274,2019-08-03,Nickolson,"[('Thunder line', 2), ('Olivia x460', 2), ('Universe Note', 2), ('Lucent 330S', 1)]",14940,68.87,-37.8005236,144.9710511,25,11273.87,Winter,True,2.016,"defective, won't turn on phone was defective. judging by other reviews, i would stay far away from this company and/or phone. the return has been a hassle and i still have thisbphone that doesn't work. i had to but a different one. disappointed.",False
ORD364145,ID0127652487,2019-11-08,Thompson,"[('pearTV', 1), ('Olivia x460', 2)]",8760,75.13,-37.8066249,144.9475429,10,7959.13,Spring,False,0.6746,five stars great phone with all the right features!,True
ORD423323,ID0356452948,2019-05-16,Bakers,"[('iStream', 1), ('Lucent 330S', 1), ('Olivia x460', 1)]",2605,66.13,-37.8058105,144.9882413,15,2280.38,Autumn,False,0.7714,"cricket i'm happy with my new phone, so nice device, perfect size and quality, package were delivered on sunday just about 3 days after purchase using free shipping. i just took the sim card out of the old phone and inserted in my xiaomi and is working perfectly using cricket wireless.",True
ORD346921,ID3202364311,2019-07-22,Thompson,"[('Alcon 10', 2), ('Toshika 750', 1)]",22220,65.69,-37.8152854,144.9578615,0,22285.69,Winter,False,0.9927,amazing computer or phone? this phone is amazing! the screen is beyond nice and the camera is better than any standard digital camera. the ability to work on two windows is incredible.,True
ORD311993,ID1449431574,2019-01-21,Nickolson,"[('Lucent 330S', 1), ('Candle Inferno', 1)]",1660,91.54,-37.8152487,144.9747429,10,1585.54,Summer,True,0.5892,nice phone works great,True
ORD164008,ID0373652047,2019-05-08,Thompson,"[('iAssist Line', 1), ('Olivia x460', 2), ('Candle Inferno', 2), ('pearTV', 2)]",18155,69.35,-37.8114345,144.9271062,15,15501.1,Autumn,False,1.761,olivia rocks. great phone @ great price.,True
ORD364713,ID0411688750,2019-01-19,Nickolson,"[('Thunder line', 2), ('Alcon 10', 1), ('pearTV', 1)]",19620,72.97,-37.8213234,144.9710059,10,17730.97,Summer,True,0.3296,infested with google ads this phone has constant google ad popups and i cannot get rid on them. i called olivia and tried to stop them and couldn't.,False
ORD254859,ID4927643639,2019-10-24,Thompson,"[('Candle Inferno', 2), ('Thunder line', 2)]",5220,81.89,-37.8054568,144.9333354,0,5301.89,Spring,False,1.4506,excellent. perfect condition,True
ORD364038,ID5322615235,2019-10-27,Thompson,"[('pearTV', 2), ('Lucent 330S', 1)]",13850,104.5,-37.8081247,144.9344576,10,12569.5,Spring,True,1.2192,"cool and sophisticed sonu i like toshika products a lot. they are sophistication and high quality. i like this model too. i like the high resolution camera. and it's integration into the phone. the display, with its high aspect ratio makes for a different perspective on photography.",True
ORD415647,ID6167344360,2019-10-03,Nickolson,"[('Universe Note', 1), ('Thunder line', 2)]",7810,82.53,-37.8166716,144.9697287,0,7892.53,Spring,True,0.2147,not worth 100 dollar savings the screen had a lot of scratches!!!!!,False
ORD257491,ID0443302591,2019-05-14,Bakers,"[('Candle Inferno', 1), ('Toshika 750', 2), ('iAssist Line', 1)]",11295,64.41,-37.8118953,145.0034273,10,10229.91,Autumn,True,0.7511,bad p√©simo no me encendi√≥ y sigo a la espera del reembolso,False
ORD219621,ID6167417910,2019-12-15,Thompson,"[('Thunder line', 1), ('iStream', 2), ('Lucent 330S', 1), ('iAssist Line', 2)]",8160,73.24,-37.8168471,144.9538302,10,7417.24,Summer,False,0.7546,worth the price new phone for new carrier.,True
ORD386998,ID0589533714,2019-07-09,Thompson,"[('Candle Inferno', 1), ('Universe Note', 2), ('iStream', 1)]",7480,80.02,-37.8216889,144.9551232,25,5690.02,Winter,True,1.2284,good device,True
ORD389135,ID0702478012,2019-12-27,Thompson,"[('pearTV', 1), ('Olivia x460', 2), ('iStream', 2), ('Toshika 750', 1)]",13380,75.1,-37.8046849,144.9446115,15,11448.1,Summer,False,0.9151,great tablet for my son. live the endless library of downloadable books.,True
ORD334542,ID4716795539,2019-10-08,Thompson,"[('iAssist Line', 2), ('Candle Inferno', 2)]",5310,101.01,-37.8189659,144.9532,15,4614.51,Spring,True,0.884,cannot be turned on thru verizon great got gaming and has a crisp display,True
ORD122815,ID0711331826,2019-08-15,Thompson,"[('Lucent 330S', 2), ('iStream', 2)]",2760,67.18,-37.8071288,144.9581368,0,2827.18,Winter,False,1.1526,great phone best price ever,True
ORD080141,ID0641030470,2019-03-28,Thompson,"[('iStream', 1), ('iAssist Line', 2)]",4600,81.0,-37.8096965,144.938704,15,3991.0,Autumn,True,0.8068,good phone satisfied,True
ORD173862,ID6167266627,2019-06-28,Nickolson,"[('iAssist Line', 2), ('Universe Note', 1), ('Thunder line', 2)]",12260,79.35,-37.809577,144.9636701,10,11113.35,Winter,True,1.1292,it's perfect. works perfectly. using it for sprint. looks basically new and functions likewise. great value for the money.,True
ORD028290,ID0259617268,2019-05-27,Thompson,"[('Toshika 750', 2), ('iAssist Line', 1)]",10865,66.35,-37.8054791,144.9487798,25,8215.1,Autumn,True,0.8148,phone was like new! the refurbished phone i received was brand new! it still had the protective plastic all over it. phone was much better than described!!,True
ORD279153,ID0777906400,2019-03-17,Thompson,"[('Alcon 10', 1), ('Toshika 750', 2), ('Olivia x460', 2), ('Universe Note', 1)]",23490,82.45,-37.8011152,144.9566097,15,20048.95,Autumn,True,1.5361,"great phone good features, great camera and battery life than olivia and alcons",True
ORD395395,ID3281123501,2019-07-15,Thompson,"[('Candle Inferno', 1), ('pearTV', 2)]",13050,64.37,-37.8047319,144.9576634,15,11156.87,Winter,True,1.2844,i bought two but one was not good. one was a fake product. i bought two but one was not good.,False
ORD257489,ID0373008417,2019-06-21,Bakers,"[('Olivia x460', 2), ('Universe Note', 1)]",5900,80.95,-37.8019094,144.9812446,0,5980.95,Winter,False,1.5244,five stars i received fast less one week and perfect,True
ORD017765,ID0519816212,2019-11-16,Thompson,"[('iStream', 1), ('Olivia x460', 2), ('pearTV', 1)]",8910,68.45,-37.8275232,144.9511724,10,8087.45,Spring,False,1.692,"the phone is not unlocked to use outside of us. i bought this phone thinking that it was unlocked, but it was not. the phone doesn't work in costa rica where i live. i tried to get the unlock code with the vendor, but they insisted that the phone is unlocked. a waste of time and money.",False
ORD463692,ID0269335114,2019-02-23,Nickolson,"[('Universe Note', 2), ('Toshika 750', 1), ('Candle Inferno', 1)]",11650,63.01,-37.8097832,144.9784224,5,11130.51,Summer,False,1.2533,no not good at all.,False
ORD050337,ID1725216340,2019-09-11,Thompson,"[('Thunder line', 1), ('Candle Inferno', 2)]",3040,110.67,-37.8015275,144.9622044,25,2390.67,Spring,True,1.8197,first time user and very pleased. great for me because of my book downloads. not too big and not too small.,True
ORD447200,ID0847530557,2019-05-07,Nickolson,"[('iStream', 2), ('Alcon 10', 2), ('Olivia x460', 1)]",19425,66.27,-37.8234103,144.9675596,5,18520.02,Autumn,False,0.5639,five stars love this phone.,True
ORD192516,ID0266738793,2019-09-14,Nickolson,"[('Candle Inferno', 1), ('iStream', 2)]",730,78.77,-37.8206448,144.9806628,15,699.27,Spring,False,1.0034,"after we learned to use this (we are still learning), we are very pleased with thunder plus",True
ORD084948,ID1449431270,2019-12-30,Nickolson,"[('Universe Note', 1), ('iStream', 2)]",3750,72.86,-37.813183,144.9739114,15,3260.36,Summer,False,0.7141,love the design and of course the overall performance love the design and of course the overall performance. i've been a toshika patron since the 2000's so i am well aware of the products of the brand.,True
ORD331610,ID0250774462,2019-01-24,Bakers,"[('iAssist Line', 2), ('Universe Note', 1)]",7900,81.63,-37.8153615,145.012267,0,7981.63,Summer,False,1.6128,good a+,True
ORD046717,ID0441029077,2019-05-30,Thompson,"[('Lucent 330S', 1), ('Toshika 750', 2), ('Candle Inferno', 1)]",10300,79.38,-37.8113965,144.9379083,15,8834.38,Autumn,False,0.8181,"so far i like it.  i bought it just for some music though, and it sounds pretty good.",True
ORD389853,ID3085953513,2019-09-18,Nickolson,"[('Alcon 10', 2), ('Olivia x460', 1), ('Universe Note', 2), ('Toshika 750', 2)]",34665,61.33,-37.8186793,144.9786866,10,31259.83,Spring,False,0.8034,"found this tablet to be very intrusive with adds, almost forced to use credit card to make things work.",False
ORD343948,ID6197211593,2019-05-22,Thompson,"[('Toshika 750', 2), ('Alcon 10', 1)]",17590,51.37,-37.8159474,144.9326379,0,17641.37,Autumn,False,1.3204,black screen horrible battery battery life was not as expected or described on the google website and there is something wrong with the phone and the screen keeps going black,False
ORD300123,ID0373649887,2019-11-01,Thompson,"[('Candle Inferno', 2), ('Thunder line', 2), ('Alcon 10', 1)]",14170,83.06,-37.8089572,144.9286705,15,12127.56,Spring,False,1.6701,"five stars battery is good when you have the right charger, not the crappy one that comes with it.",True
ORD453670,ID0579391943,2019-05-25,Nickolson,"[('Toshika 750', 2), ('Olivia x460', 1), ('Thunder line', 1), ('Candle Inferno', 1)]",12475,81.6,-37.8221491,144.9560588,25,9437.85,Autumn,True,1.2506,"nice affordable prepaid phone nice affordable prepaid phone. could use a little more internal storage space but overall good screen, calls, and volume.",True
ORD326020,ID3945799005,2019-03-26,Nickolson,"[('iStream', 1), ('Thunder line', 2), ('Universe Note', 2), ('Olivia x460', 2)]",13860,51.68,-37.814942,144.9606027,25,10446.68,Autumn,False,0.8858,"not an at&t phone this is not an at&t phone. after many frustrating hrs trying to see of i can get this phone to work with at&t, we were able to conclude that not onlybia it not an at&t phone but it's not compatible either! pretty upsetting!",False
ORD292536,ID4283908135,2019-12-31,Bakers,"[('Toshika 750', 2), ('Thunder line', 2), ('pearTV', 2)]",25620,73.48,-37.8092565,144.9856345,25,19288.48,Summer,False,0.8481,"i thoroughly enjoy this table! easy to operate, plenty of memory, and i can use it for anything that i typically use a computer for.",True
ORD286358,ID0579380055,2019-10-05,Thompson,"[('Thunder line', 1), ('pearTV', 2)]",14800,68.89,-37.8215102,144.9307248,5,14128.89,Spring,False,1.7417,got an at&t locked phone from mobile deals the seller mobile deals sent me a locked s7. no apn access and wanted a unlock code upon getting sim. don't buy unless you are using at&t.,False
ORD178343,ID0164077720,2019-01-14,Thompson,"[('Universe Note', 1), ('Candle Inferno', 1)]",3880,92.5,-37.8151625,144.9545623,10,3584.5,Summer,True,0.7149,awesome awesome,True
ORD029757,ID0591233116,2019-02-08,Thompson,"[('Universe Note', 2), ('Thunder line', 2), ('Alcon 10', 1)]",20210,99.91,-37.8248762,144.9534785,15,17278.41,Summer,True,1.4707,products good products,True
ORD375422,ID6197211483,2019-08-22,Thompson,"[('Alcon 10', 2), ('Toshika 750', 2), ('pearTV', 2)]",39160,77.47,-37.8143826,144.9328127,10,35321.47,Winter,True,1.2681,phone worth having for a while it's a battery beast with good performance you will love it,True
ORD455569,ID0310728547,2019-06-01,Thompson,"[('Universe Note', 2), ('iStream', 1), ('Lucent 330S', 2), ('Candle Inferno', 1)]",9940,50.25,-37.8116827,144.9393228,10,8996.25,Winter,False,0.6901,serious problems with the battery not as advertised. battery rapidy loses power within minutes and then phone shuts off when battery is at 50% and then the only way power the phone back on is charge it.,False
ORD479700,ID0580158980,2019-03-11,Thompson,"[('Toshika 750', 2), ('Candle Inferno', 2), ('Lucent 330S', 1), ('Thunder line', 1)]",12910,81.77,-37.7996716,144.9370344,25,9764.27,Autumn,True,1.6952,dual sim works grat dual sim very useful to me.,True
ORD313259,ID0607756866,2019-05-01,Nickolson,"[('iAssist Line', 2), ('Candle Inferno', 1)]",4880,62.96,-37.8174195,144.9619198,5,4698.96,Autumn,True,0.6837,"a bad choice it's a nice phone only if it worked properly. i can answer the phone but can't hear the person on the line i have to put the phone on speaker in order to hear, this causes people to hang up because the phone's a piece of junk. this started happen two days after i got the phone.....a bad choice.",False
ORD133319,ID0589425753,2019-09-10,Nickolson,"[('pearTV', 1), ('Universe Note', 2)]",13210,77.91,-37.8094704,144.9727182,25,9985.41,Spring,False,1.0532,"great unlocked phone great phone, perfect for internet, youtube, clover, etc. very snappy and a night and day upgrade to nexus 5x",True
ORD130429,ID4716795585,2019-02-02,Thompson,"[('Candle Inferno', 2), ('Olivia x460', 1), ('Lucent 330S', 2)]",4545,73.6,-37.8192582,144.9528011,5,4391.35,Summer,False,0.8896,good everything was fine,True
ORD178715,ID0419481494,2019-10-22,Bakers,"[('Thunder line', 2), ('iAssist Line', 2), ('Alcon 10', 1)]",17760,79.27,-37.8187507,144.9960643,5,16951.27,Spring,False,0.9773,oneplus is phenomenal!!! i have nothing but positive things to say about this phone. great seller and fast shipping. thank you,True
ORD045264,ID0634783913,2019-12-04,Thompson,"[('iAssist Line', 2), ('iStream', 2), ('Alcon 10', 1)]",13700,74.07,-37.8135585,144.9371334,0,13774.07,Summer,False,0.8793,"the best phone i ever had fast, lot of storage, great camera and has an 3.5mm headphones jack. amazing phone",True
ORD207905,ID0582156569,2019-12-08,Thompson,"[('Toshika 750', 2), ('Universe Note', 1)]",12090,95.92,-37.7882653,144.9292018,10,10976.92,Summer,False,3.1388,"great phone great phone still, but i'm a nerd.",True
ORD439958,ID0844462093,2019-10-19,Thompson,"[('Olivia x460', 2), ('Universe Note', 2), ('Lucent 330S', 2)]",11810,87.55,-37.8210918,144.9473694,0,11897.55,Spring,True,0.9375,dont get here!! don't ever buy a phone hear piece of crap,False
ORD213793,ID0256189632,2019-11-16,Thompson,"[('Toshika 750', 1), ('Olivia x460', 1), ('iStream', 1), ('iAssist Line', 2)]",10145,166.13,-37.7396359,144.8463361,0,10311.13,Spring,False,12.0273,five stars good one. worth for money.,True
ORD198166,ID0214092311,2019-01-10,Bakers,"[('iStream', 1), ('iAssist Line', 1)]",2375,103.88,-37.8088698,145.0155561,5,2360.13,Summer,True,1.7918,five stars works great,True
ORD072499,ID0641022429,2019-03-23,Thompson,"[('Thunder line', 1), ('iStream', 1)]",2330,79.9,-37.806807,144.9380724,0,2409.9,Autumn,True,1.0259,five stars even better than i expected!,True
ORD232782,ID0560985135,2019-09-12,Thompson,"[('iAssist Line', 2), ('Olivia x460', 2), ('iStream', 2), ('Lucent 330S', 2)]",9660,74.24,-37.8178767,144.9465948,10,8768.24,Spring,False,0.5807,good price so far so good. no issues in 1 month.,True
ORD236249,ID4353912834,2019-07-22,Bakers,"[('Candle Inferno', 2), ('Alcon 10', 1), ('iStream', 1)]",9960,59.54,-37.8209865,145.0135975,15,8525.54,Winter,False,2.0261,zero stars phone gets hot while charging. it will not sustain a charge. if the phone is dropped all info is lost. calls are dropped mid-call. its an awful piece of equipment i've paid for.,False
ORD441245,ID0241807179,2019-01-02,Bakers,"[('Lucent 330S', 2), ('Toshika 750', 1), ('Universe Note', 2), ('Olivia x460', 2)]",16130,97.63,-37.8115493,144.9832912,25,12195.13,Summer,False,1.0643,five stars so far phone works great,True
ORD469391,ID0247277261,2019-08-29,Thompson,"[('Lucent 330S', 2), ('iStream', 2), ('Universe Note', 2)]",9660,79.71,-37.8041956,144.9569304,5,9256.71,Winter,True,1.2817,excellent great phone,True
ORD298393,ID4380043479,2019-05-17,Bakers,"[('Universe Note', 2), ('Thunder line', 1)]",9080,69.28,-37.8233476,144.9891577,15,7787.28,Autumn,True,1.5793,... this phone for my brother and so far so good. i myself own one so i'm pretty satisfied ... i bought this phone for my brother and so far so good. i myself own one so i'm pretty satisfied with its performance,True
ORD003163,ID0319157090,2019-08-21,Nickolson,"[('iAssist Line', 2), ('Alcon 10', 2), ('Toshika 750', 2), ('pearTV', 2)]",43610,80.36,-37.8074114,144.9671342,0,43690.36,Winter,False,1.2629,three stars its nice but i was wondering if this phone takes a sim card,True
ORD305221,ID0157861191,2019-07-30,Nickolson,"[('Lucent 330S', 1), ('pearTV', 1), ('iStream', 1)]",7690,82.37,-37.8235896,144.95587,0,7772.37,Winter,True,1.3253,"five stars great phone, great price, works well in and out of the us.",True
ORD347886,ID0702376197,2019-11-24,Thompson,"[('iStream', 1), ('Universe Note', 1)]",3600,92.51,-37.8001991,144.9418664,25,2792.51,Spring,True,1.462,bs this phone isn't compatible with any type of service provider.,False
ORD261092,ID0298045597,2019-02-12,Nickolson,"[('Thunder line', 1), ('Alcon 10', 2), ('iAssist Line', 2)]",24530,93.94,-37.8246637,144.9636676,25,18491.44,Summer,True,0.8509,i like it! satisfied to date. water resistance not tested.,True
ORD078298,ID5668009781,2019-01-05,Bakers,"[('iAssist Line', 2), ('Thunder line', 1), ('Alcon 10', 2), ('pearTV', 1)]",30840,73.93,-37.8044276,145.0017065,25,23203.93,Summer,False,0.8417,awesome universe 7s great phone love it!,True
ORD390017,ID0054558279,2019-03-12,Nickolson,"[('Olivia x460', 1), ('Candle Inferno', 2), ('Alcon 10', 2)]",19985,82.09,-37.8191804,144.9776988,10,18068.59,Autumn,True,0.7194,it's big then the one i had i would tell my friends,True
ORD067373,ID5002594945,2019-05-08,Thompson,"[('Alcon 10', 1), ('iStream', 1), ('Candle Inferno', 1), ('pearTV', 1)]",15840,76.81,-37.8121247,144.9523505,15,13540.81,Autumn,True,0.4685,very good. i love it very good .i love it,True
ORD351857,ID4893628973,2019-08-16,Thompson,"[('iAssist Line', 2), ('pearTV', 2), ('Thunder line', 2)]",21430,69.81,-37.8113128,144.9299071,5,20428.31,Winter,False,1.5168,great stuff awesome! no glitches or appearance mishaps so far üòäüòäüòä,True
ORD146196,ID4005718490,2019-03-04,Bakers,"[('Candle Inferno', 2), ('iAssist Line', 1), ('iStream', 1), ('pearTV', 1)]",9545,68.94,-37.8203196,144.9894131,5,9136.69,Autumn,False,1.258,"it's wonderful. i love it. it's easy to watch movies, play games and read books.",True
ORD305833,ID2302316260,2019-09-05,Nickolson,"[('Candle Inferno', 1), ('pearTV', 1)]",6740,105.28,-37.8113538,144.9785104,25,5160.28,Spring,True,1.1272,"best note 5 i am a big fan of olivia phones, i really wanted a great phone and fast charging/wireless charging too. awesome screen quality and decent battery life too.",True
ORD130717,ID1880686094,2019-02-16,Thompson,"[('Universe Note', 1), ('Thunder line', 1), ('pearTV', 2), ('Lucent 330S', 1)]",19480,95.45,-37.8026378,144.9454626,25,14705.45,Summer,True,1.126,awesome phone phone is good. camera is awesome.,True
ORD461634,ID5406376907,2019-03-07,Thompson,"[('pearTV', 1), ('Lucent 330S', 1)]",7540,69.73,-37.7995405,144.9634954,25,5724.73,Autumn,False,2.0553,love it takes good pictures and offers nice features,True
ORD454037,ID0163364781,2019-01-02,Thompson,"[('Lucent 330S', 2), ('Candle Inferno', 2), ('iStream', 2), ('Thunder line', 1)]",5800,71.58,-37.8137353,144.9522985,15,5001.58,Summer,False,0.4749,great phone. great phone so far for the price.,True
ORD183498,ID2766300593,2019-11-02,Nickolson,"[('Thunder line', 2), ('iStream', 1)]",4510,87.39,-37.7996592,144.9701942,25,3469.89,Spring,False,2.1086,great buy the phone came in brand new with the headphones and charging cables and a pre-installed screen protector. love the upgrade. battery life has lasted me 2 days while using normally.,True
ORD142014,ID4297530225,2019-11-09,Bakers,"[('Alcon 10', 2), ('Thunder line', 2), ('Toshika 750', 1)]",26580,104.13,-37.8062807,144.982408,5,25355.13,Spring,True,1.2013,good phone good phone. thank you xiaomi,True
ORD029298,ID0233275048,2019-02-11,Bakers,"[('Universe Note', 1), ('Candle Inferno', 1), ('iStream', 1)]",4030,104.78,-37.7996998,144.9771516,25,3127.28,Summer,True,1.9602,phone :),True
ORD089643,ID0247277261,2019-06-24,Thompson,"[('Olivia x460', 2), ('Alcon 10', 2), ('pearTV', 1)]",26660,67.32,-37.8041956,144.9569304,10,24061.32,Winter,False,1.2817,good price. i bought it as a gift. hope my friend like it. it will be sent to nicaragua.,True
ORD477336,ID0581715888,2019-09-30,Thompson,"[('iStream', 1), ('Toshika 750', 2), ('Candle Inferno', 2)]",9650,81.34,-37.8051279,144.9305831,25,7318.84,Spring,False,1.6756,so good like,True
ORD469498,ID4455982394,2019-01-31,Thompson,"[('Candle Inferno', 2), ('Universe Note', 2), ('iStream', 1), ('Olivia x460', 1)]",9135,103.8,-37.7993561,144.9607673,15,7868.55,Summer,True,1.9103,perfect when i received the phone it looked brand new. my old s5 had a perforated sim in it so i just snapped the sim out and installed it in the new s8 along with my old sd card. started the new phone and everything came back from my old phone. very happy with this purchase.,True
ORD350003,ID2469584358,2019-02-06,Bakers,"[('iAssist Line', 2), ('iStream', 1), ('pearTV', 1), ('Thunder line', 2)]",15270,76.37,-37.7998935,144.9892036,5,14582.87,Summer,False,1.2433,better. this one turned out better than the mega (1).,True
ORD209729,ID2189269629,2019-12-07,Nickolson,"[('Candle Inferno', 2), ('Thunder line', 1), ('iAssist Line', 1), ('Universe Note', 1)]",8715,94.44,-37.8209335,144.9614206,15,7502.19,Summer,True,0.7609,five stars the phone came fast and wprks great,True
ORD302084,ID3222703077,2019-07-19,Thompson,"[('Universe Note', 1), ('Toshika 750', 1), ('Thunder line', 2)]",12130,66.54,-37.8018662,144.9432382,10,10983.54,Winter,False,1.2493,five stars i am happy!! it's good,True
ORD022176,ID0589735260,2019-05-18,Thompson,"[('Toshika 750', 1), ('pearTV', 2), ('Alcon 10', 2)]",34840,52.64,-37.8216333,144.9531391,5,33150.64,Autumn,False,1.1313,"had to return due to buggy screen. i was genuinely in love with the phone for 3 days, but the screen became defective and glitchy, and no troubleshooting options helped me, which forced me to return the phone.",False
ORD442447,ID0634783347,2019-03-13,Thompson,"[('Candle Inferno', 1), ('Olivia x460', 1), ('Thunder line', 1), ('pearTV', 2)]",16455,78.12,-37.812253,144.9386792,25,12419.37,Autumn,True,0.7393,i like the smaller size of the phone as well the olivia universe rugby pro 1547 is user friendly. i like the smaller size of the phone as well. i just upgraded from a slide phone and i'm still learning about all the different options available. for the price and my needs the phone is perfect.,True
ORD238334,ID6167344595,2019-03-14,Nickolson,"[('iStream', 1), ('iAssist Line', 2), ('Universe Note', 1), ('Candle Inferno', 1)]",8480,50.73,-37.8120814,144.9707261,15,7258.73,Autumn,False,0.7324,defectuoso el art√≠culo lleg√≥ muy ara√±ado,False
ORD155528,ID0844490197,2019-05-15,Thompson,"[('Alcon 10', 2), ('Universe Note', 1)]",21350,78.42,-37.8221215,144.9496754,15,18225.92,Autumn,True,1.0764,four stars one of the best mobile in the market with in this price range.,True
ORD471269,ID6167357857,2019-12-08,Nickolson,"[('Alcon 10', 1), ('iAssist Line', 1), ('iStream', 2)]",11475,73.93,-37.81106,144.9727426,10,10401.43,Summer,False,0.8845,"xp baby amazing phone for an amazing price. i saw the complaints about the usb port, so i put a wireless charging adapter on it. i have no issues with this baby. i missed xp from the windows phone days.",True
ORD333672,ID0257506016,2019-02-03,Thompson,"[('Candle Inferno', 1), ('Alcon 10', 2), ('Lucent 330S', 1)]",19560,104.49,-37.7991145,144.9632575,15,16730.49,Summer,True,2.0749,works at sprint !! good and works fine. purchased and got here quickly. the box had no plastic wrap all over but it was scratch free brand new. i just connected it at my sprint account in store free of charge. so this works with cdma !!!,True
ORD073914,ID0363385339,2019-07-22,Thompson,"[('Candle Inferno', 2), ('iStream', 2)]",1160,70.65,-37.7987872,144.9592297,0,1230.65,Winter,False,1.8797,no gyroscope üòü there's no gyroscope on this phone so if you have sky map or a vr headset forget about it. also there's only one small speaker on the bottom of this phone that's not very loud but all in all it's not a bad of a phone.,True
ORD458560,ID3218226990,2019-11-07,Thompson,"[('Universe Note', 2), ('Thunder line', 2), ('Olivia x460', 1)]",12485,75.8,-37.8071447,144.9449979,5,11936.55,Spring,False,0.6418,not a scam using it right now. it's perfect,True
ORD110200,ID2190478936,2019-04-04,Nickolson,"[('Universe Note', 1), ('pearTV', 1), ('Candle Inferno', 1)]",10190,64.54,-37.8142917,144.9631103,15,8726.04,Autumn,False,0.7418,"... for a fuddy duddy that does not want a smart phone, great replacement for a fuddy duddy that does not want a smart phone, great, phone, he is really happy his old convoy was 5 years old.",True
ORD025500,ID0612015200,2019-05-10,Nickolson,"[('Universe Note', 1), ('Olivia x460', 1), ('Toshika 750', 2)]",13315,49.49,-37.8159365,144.9637489,0,13364.49,Autumn,False,0.5898,one star no arabic language,False
ORD213317,ID2481930664,2019-09-17,Bakers,"[('iStream', 2), ('Toshika 750', 1), ('iAssist Line', 2), ('Thunder line', 2)]",13430,76.27,-37.8104777,145.0032768,0,13506.27,Spring,False,0.7095,"best google phone yet! this is my third google phone and it is the best. best speed, best battery life, best camera and easiest to use.",True
ORD189853,ID0247020733,2019-09-20,Nickolson,"[('Alcon 10', 2), ('Thunder line', 1), ('iStream', 1)]",20230,74.38,-37.8131185,144.9694277,5,19292.88,Spring,False,0.6097,"nice nice, great price....took a little longer to get since i was sent a baby monitor instead of a phone first but very fast reorder",True
ORD154721,ID3085953523,2019-02-16,Bakers,"[('Alcon 10', 2), ('Lucent 330S', 2), ('pearTV', 2), ('Universe Note', 2)]",39880,68.37,-37.8236121,144.9878986,15,33966.37,Summer,False,1.6472,weak sound. compared to the google home mini the sound is bad. also you need gold to have a small selection of music and need gold music to play everything. also if you get two you need gold family music to play music on both. i think it's lame that you need a family plan to use multiple devices.,False
ORD336320,ID0871096413,2019-07-18,Thompson,"[('Alcon 10', 2), ('Toshika 750', 2)]",26540,66.03,-37.8002511,144.9597986,10,23952.03,Winter,True,1.7792,don't waste your time box came damaged and the tablet was locked to at&t still,False
ORD001632,ID1490906981,2019-03-02,Thompson,"[('Candle Inferno', 2), ('Lucent 330S', 1)]",2090,67.6,-37.822784,144.9365094,25,1635.1,Autumn,False,1.4591,great value for such a well made tablet. everything you need for a low price,True
ORD363102,ID2168114074,2019-03-26,Nickolson,"[('Universe Note', 2), ('pearTV', 2)]",19520,67.83,-37.8083298,144.9764632,10,17635.83,Autumn,False,1.2943,"five stars love it, looks great, no issues getting it synced with my carrier.",True
ORD002776,ID6237546435,2019-12-13,Bakers,"[('Candle Inferno', 1), ('Toshika 750', 1)]",4750,81.48,-37.8009681,145.0035962,15,4118.98,Summer,True,1.2454,dud could not get it to turn on battery would not charge,False
ORD369924,ID2185303480,2019-06-27,Thompson,"[('iStream', 2), ('Candle Inferno', 1), ('Universe Note', 2), ('iAssist Line', 2)]",12080,80.74,-37.800007,144.9356834,10,10952.74,Winter,True,1.7294,great buy as described easy transfer from old phone,True
ORD257289,ID0580000921,2019-07-20,Thompson,"[('Alcon 10', 1), ('Olivia x460', 1), ('iStream', 2)]",10475,69.35,-37.8059969,144.9318902,15,8973.1,Winter,False,1.5279,"four stars phone is great, but was not brand new as listed.",True
ORD096141,ID0581758944,2019-08-03,Thompson,"[('Universe Note', 2), ('Alcon 10', 1), ('Toshika 750', 2), ('Olivia x460', 1)]",25715,70.46,-37.8037477,144.9307499,10,23213.96,Winter,False,1.7456,very easy to set up and straight forward directions. loads fast also.,True
ORD103925,ID0287630711,2019-08-23,Thompson,"[('Olivia x460', 2), ('Thunder line', 2), ('Alcon 10', 2)]",24710,66.92,-37.8032852,144.9461326,15,21070.42,Winter,False,1.0483,excellent condition. only thing i disliked was that it ... received the phone. excellent condition. only thing i disliked was that it was locked by at but that is an easy fix. i can always get a prepaid at plan or go to a postpaid at plan.,True
ORD059972,ID2247271590,2019-02-22,Nickolson,"[('Thunder line', 1), ('Candle Inferno', 2), ('Lucent 330S', 1), ('iAssist Line', 1)]",6495,55.51,-37.8162972,144.9637915,0,6550.51,Summer,False,0.5674,dont buy this its a waist of money this phone is the worst thing i have ever bought in my life it's laggy restarts on its on and turns off on its own,False
ORD152806,ID0780992532,2019-02-08,Thompson,"[('Toshika 750', 1), ('Alcon 10', 2), ('iAssist Line', 2)]",26670,73.98,-37.8056197,144.9537607,15,22743.48,Summer,False,0.9813,five stars very good!!!,True
ORD032765,ID0777786750,2019-09-17,Thompson,"[('Olivia x460', 1), ('Toshika 750', 1), ('Thunder line', 1), ('Alcon 10', 1)]",16675,63.05,-37.805667,144.9537539,5,15904.3,Spring,False,0.9767,not unlocked at all not unlocked. do not buy,False
ORD444352,ID2716423449,2019-01-21,Thompson,"[('Candle Inferno', 1), ('Toshika 750', 1), ('Thunder line', 2)]",9110,66.61,-37.8140346,144.9470579,15,7810.11,Summer,True,0.1516,"a++++ seller and product this phone is awesome, awesome, awesome! a++++ seller",True
ORD101143,ID0309346714,2019-03-01,Bakers,"[('pearTV', 1), ('iAssist Line', 2)]",10760,63.79,-37.8140612,144.9999996,5,10285.79,Autumn,False,0.6169,four stars i like this phone,True
ORD027597,ID0443274306,2019-08-09,Bakers,"[('pearTV', 2), ('Universe Note', 2), ('Alcon 10', 2)]",37420,64.25,-37.82198,145.0027637,0,37484.25,Winter,True,1.4894,"phone was never wiped clean, previous owners info came ... phone was never wiped clean, previous owners info came up when taken to metro pcs to transfer personal info and set up.",False
ORD140420,ID1449298228,2019-08-20,Nickolson,"[('Lucent 330S', 2), ('Thunder line', 2), ('Toshika 750', 2), ('iAssist Line', 2)]",19910,67.02,-37.818763,144.9836536,0,19977.02,Winter,False,1.2403,good value phone item received on time and correct version. came with the wrong charging head (not internstion version) but overall good value,True
ORD052810,ID0746921886,2019-07-06,Nickolson,"[('Olivia x460', 1), ('iAssist Line', 1), ('Lucent 330S', 2), ('iStream', 2)]",6210,70.41,-37.8260078,144.9821994,0,6280.41,Winter,True,1.3849,olivia replenish i just love this phone. this is the best phone that i had for a very long time. best ever!!!!!!!!!,True
ORD473471,ID0596909581,2019-08-19,Nickolson,"[('iStream', 1), ('Lucent 330S', 1), ('Toshika 750', 1)]",5700,61.53,-37.8131242,144.9630993,0,5761.53,Winter,True,0.8323,wasted money. did not fit device; cost more to send back. wasted money.,False
ORD422628,ID0575374776,2019-01-17,Nickolson,"[('iStream', 1), ('iAssist Line', 1)]",2375,98.37,-37.8195276,144.9841789,10,2235.87,Summer,True,1.2905,just good no comment at all,True
ORD416393,ID0711331401,2019-09-09,Thompson,"[('Alcon 10', 1), ('iStream', 1)]",9100,88.63,-37.8072702,144.9569093,0,9188.63,Spring,True,1.0539,misleading title - phone not unlocked not unlocked. no phone number to contact the seller. had to return and order something else.,False
ORD344825,ID1725216611,2019-11-14,Nickolson,"[('pearTV', 2), ('Candle Inferno', 2), ('Lucent 330S', 2), ('Toshika 750', 1)]",20260,84.22,-37.8038592,144.9649561,5,19331.22,Spring,True,1.6894,five stars replaced by s5 but still works great,True
ORD440153,ID3189789232,2019-08-29,Nickolson,"[('iAssist Line', 1), ('pearTV', 2), ('Thunder line', 2), ('Olivia x460', 2)]",21655,63.82,-37.8040024,144.968017,25,16305.07,Winter,True,1.63,defective product - phone stops working in a few months phone barely lasted 6 months. at first i had battery issues and now the phone won't start. the seller is clearly selling defective batched of product. i would suggest to stay away.,False
ORD012953,ID0598033519,2019-09-29,Nickolson,"[('Candle Inferno', 2), ('Universe Note', 1), ('Thunder line', 1)]",6490,84.59,-37.8141191,144.9663777,15,5601.09,Spring,True,0.5711,one star sad that this phone broke in less than 6 months after getting it,False
ORD272152,ID1479928086,2019-02-01,Thompson,"[('pearTV', 2), ('Olivia x460', 2), ('Candle Inferno', 2)]",15930,75.88,-37.8208956,144.9560135,0,16005.88,Summer,False,1.2068,"laggy, buggy, but otherwise good os/software is laggy and buggy and frequenly crashes throughout the day - otherwise the display and the large size is the main attraction. i don't think i will be purchasing a toshika phone again.",True
ORD129360,ID0575520122,2019-06-10,Nickolson,"[('iStream', 2), ('iAssist Line', 2)]",4750,79.77,-37.821333,144.9834794,0,4829.77,Winter,True,1.2621,five stars a great mesh of ios and android features in the interface. user friendly and badass camera.,True
ORD343577,ID3967630114,2019-06-26,Thompson,"[('pearTV', 2), ('Candle Inferno', 1), ('Toshika 750', 1), ('Lucent 330S', 1)]",18600,65.27,-37.819088,144.9517341,25,14015.27,Winter,True,0.8235,"nice phone, but with limitations does not have major apps available such as magic jack and skype...windows hardly has apps available. sounds like ur under water when speaking on the phone, had to use the phone on speaker mode only.",True
ORD478541,ID2975231282,2019-03-05,Thompson,"[('pearTV', 2), ('Lucent 330S', 2)]",15080,68.64,-37.8004816,144.95821,10,13640.64,Autumn,True,1.6739,"would definitely recommend! phone came in spectacular condition, no flaws at all, works like new and would definitely recommend 10/10",True
ORD346266,ID4157116171,2019-02-08,Bakers,"[('pearTV', 1), ('Lucent 330S', 2), ('Alcon 10', 2)]",26670,75.29,-37.8180467,144.9944995,10,24078.29,Summer,False,0.8985,four stars got this fone for my girlfriends birthday she obsolutely loved it. thanks,True
ORD409857,ID6167417934,2019-04-28,Nickolson,"[('iStream', 1), ('Lucent 330S', 2), ('Candle Inferno', 2)]",3470,51.92,-37.8149718,144.9602405,5,3348.42,Autumn,False,0.9127,purrchaed att received verizon i ordered g935a unlocked phone (at&t unlocked). however i received the 935v (verizon) which requires cutting the sim card with scissors to make it fit. im very disappointed. ive asked for return instructions and label.,False
ORD072592,ID0560997643,2019-12-17,Thompson,"[('Toshika 750', 2), ('pearTV', 1)]",14950,93.73,-37.8106592,144.9381245,10,13548.73,Summer,True,0.8179,i like it great so far. however not too much different than my olivia s6 edge plus.,True
ORD196107,ID1668523275,2019-09-18,Nickolson,"[('iAssist Line', 1), ('Thunder line', 1), ('Candle Inferno', 2)]",5265,61.88,-37.8209066,144.9620724,5,5063.63,Spring,False,0.7062,na piece of crap. should have known better. it worked for a while but started going crazy. i don't recamend. nope,False
ORD019181,ID0356098373,2019-01-07,Bakers,"[('Candle Inferno', 1), ('iAssist Line', 2)]",4880,78.23,-37.8209865,144.9904652,5,4714.23,Summer,False,1.2932,"real fast charging and amazing performance (even buying in 2018) a very impressive phone, real fast charging and amazing performance (even buying in 2018). like the mods concept so decided to have a try.",True
ORD223944,ID4633638475,2019-02-26,Thompson,"[('iStream', 1), ('Thunder line', 2)]",4510,92.1,-37.8065476,144.9443851,10,4151.1,Summer,True,0.7216,"no earphone jack i wasn't sure if a phone without a earphone jack works for me, but i don't really use earphones with a phone anyway, this was worth it.",True
ORD300391,ID0588197148,2019-09-19,Nickolson,"[('iStream', 1), ('Lucent 330S', 1)]",1380,75.18,-37.8120939,144.9738315,5,1386.18,Spring,False,0.8157,five stars this product is a very good purchase i've got very good reception no problem at this time.,True
ORD048585,ID0131238813,2019-05-21,Nickolson,"[('iAssist Line', 1), ('Toshika 750', 1), ('Alcon 10', 1), ('iStream', 1)]",15645,65.76,-37.8135033,144.9617899,15,13364.01,Autumn,False,0.8872,it does what it's suppose to do great product.,True
ORD014970,ID0575434489,2019-01-17,Nickolson,"[('Lucent 330S', 2), ('Universe Note', 2), ('Olivia x460', 2)]",11810,96.62,-37.818821,144.9818722,0,11906.62,Summer,True,1.0838,five stars works very well in argentina.,True
ORD309981,ID2383211235,2019-01-26,Nickolson,"[('Thunder line', 2), ('Alcon 10', 1)]",13310,67.53,-37.8173234,144.9674074,5,12712.03,Summer,False,0.2357,"best phone for value on the market, 10/10 camera bought it for the camera and was not disappointed. good battery, all the processing i'll ever need and the screen has survived many falls on concrete floors without cracking (no screen protector). love that it still has a headphone jack too!",True
ORD096913,ID6167289296,2019-08-21,Nickolson,"[('Olivia x460', 2), ('Universe Note', 1)]",5900,66.17,-37.8094422,144.9639284,10,5376.17,Winter,False,1.1325,"works great.having fun playing music,checking weather,a king questions.",True
ORD167006,ID2158807351,2019-02-07,Bakers,"[('iAssist Line', 2), ('Alcon 10', 2)]",22350,99.51,-37.7980831,144.9875429,10,20214.51,Summer,True,1.4886,works and looks like new. i use mine on metropcs. it was like a new phone except it had an off brand charger and head phones (both seemed new at least) and it cam with the wrong cable (usb c). i would buy again.,True
ORD118768,ID0343315451,2019-10-12,Bakers,"[('Lucent 330S', 2), ('iAssist Line', 2), ('iStream', 1), ('Olivia x460', 1)]",8285,108.62,-37.82524,144.994083,0,8393.62,Spring,True,1.6999,battery life the phone literally took ten hours to charge. to 35 percent. but everything else is fine.,True
ORD168560,ID2204643284,2019-03-04,Bakers,"[('iStream', 1), ('Candle Inferno', 1), ('Thunder line', 2)]",4940,69.83,-37.7990476,144.9783692,10,4515.83,Autumn,False,1.9196,great product no problems,True
ORD173908,ID0594206738,2019-11-03,Nickolson,"[('iStream', 2), ('iAssist Line', 2), ('Lucent 330S', 2)]",7210,59.93,-37.815917,144.9655787,0,7269.93,Spring,False,0.4592,"the phone worked fine for a while but then all of a sudden ... the phone worked fine for a while but then all of a sudden the water proofing failed and my phone ""drowned"" from shower steam",False
ORD340719,ID3085953528,2019-03-12,Nickolson,"[('Thunder line', 1), ('iStream', 1), ('Universe Note', 2)]",9230,65.0,-37.8174377,144.9768171,15,7910.5,Autumn,False,0.6518,exactly what i was looking for. my old tablet stopped working so the value of the digico inferno at best buy was too much to pass up,True
ORD365449,ID6245726959,2019-09-20,Nickolson,"[('Alcon 10', 1), ('Candle Inferno', 1), ('iStream', 1), ('pearTV', 2)]",22150,102.41,-37.8101983,144.9766874,5,21144.91,Spring,True,1.1258,alcon 7üò¨ perfect condition,True
ORD078015,ID0575375067,2019-10-28,Nickolson,"[('Candle Inferno', 2), ('Toshika 750', 1)]",5180,79.84,-37.8194217,144.9829558,25,3964.84,Spring,False,1.1823,"hard to press screen on the top right corner daily use, but noticeable scratches on screen",True
ORD278220,ID0227324737,2019-04-17,Bakers,"[('Lucent 330S', 2), ('iStream', 2), ('pearTV', 2), ('Olivia x460', 2)]",17830,64.89,-37.8043117,144.9947485,10,16111.89,Autumn,False,0.6342,great phone love the phone,True
ORD380823,ID0506049858,2019-11-15,Thompson,"[('pearTV', 1), ('Olivia x460', 1), ('iAssist Line', 1), ('Lucent 330S', 1)]",10990,102.25,-37.8156604,144.9389514,15,9443.75,Spring,True,0.7875,"first rate phone at bargain a basement price it costs one-fourth as much as the universe s10 and i haven't found anything lacking. there must be s10 features i don't know about (and therefore probably wouldn't use), but i am very happy with the a50. one of the best buys on the mobile phone market.",True
ORD442243,ID0663480235,2019-06-17,Nickolson,"[('Thunder line', 1), ('Universe Note', 2)]",9080,61.94,-37.825245,144.9681917,25,6871.94,Winter,True,0.7498,"hi, i bought this phone in june2017 and i ... hi, i bought this phone in june2017 and i have problem to use with a sim card in venezuela and now in argentina with claro. the phone isn't unlocked or it have a problem with the sistem.",False
ORD401818,ID2776394281,2019-04-17,Nickolson,"[('Universe Note', 2), ('pearTV', 2), ('Alcon 10', 2), ('iAssist Line', 1)]",39645,79.9,-37.8117797,144.9634761,10,35760.4,Autumn,True,0.9279,five stars love this phone. easy to use and light. a bit on the large size.,True
ORD233049,ID4716795332,2019-07-20,Thompson,"[('iAssist Line', 2), ('Toshika 750', 2), ('Thunder line', 1), ('Lucent 330S', 2)]",17730,65.1,-37.8192834,144.9527012,25,13362.6,Winter,False,0.887,universe 10! exactly what i wanted! price was great! i gave them some hassle about shipping taking so long but i am so happy! great seller and customer service!,True
ORD483619,ID6143901733,2019-12-30,Bakers,"[('Toshika 750', 1), ('iStream', 1)]",4470,76.39,-37.8028084,145.0041919,25,3428.89,Summer,False,1.123,"this product replaces the 1st generation inferno stick i had, and what an improvement in speed in both showing digico content but all apps downloaded on product! i bought in on gold day for $19 .... best deal ever !",True
ORD252534,ID6167191164,2019-08-11,Nickolson,"[('Olivia x460', 1), ('Toshika 750', 1), ('Lucent 330S', 1), ('Alcon 10', 1)]",15725,75.07,-37.8160919,144.9640996,15,13441.32,Winter,False,0.5545,four stars well,True
ORD409595,ID1217532825,2019-11-19,Thompson,"[('Thunder line', 2), ('Toshika 750', 2)]",13000,76.57,-37.8179314,144.9485611,5,12426.57,Spring,False,0.5999,... have an alcon 7 plus yet but i will love to promote your product i don't have an alcon 7 plus yet but i will love to promote your product !!! my friend just got one it's very unique and easy to use its the best alcon 7 plus ever!!!!!,True
ORD226056,ID6167230998,2019-02-12,Thompson,"[('iAssist Line', 1), ('Thunder line', 1), ('Universe Note', 2), ('Olivia x460', 1)]",12530,72.78,-37.8169763,144.9534055,5,11976.28,Summer,False,0.7348,delivery was quick. thanks very good device,True
ORD039494,ID0477079750,2019-02-17,Nickolson,"[('Toshika 750', 2), ('pearTV', 1), ('Thunder line', 1), ('Candle Inferno', 1)]",17560,80.66,-37.8061396,144.977778,25,13250.66,Summer,True,1.5639,( 650 ) - 468 - 7899 i bought it for birth day gift for my wife who is in lagos nigeria. she loves it,True
ORD230705,ID2457712052,2019-01-27,Bakers,"[('pearTV', 1), ('Alcon 10', 1), ('Thunder line', 2)]",19620,66.32,-37.804963,144.9787203,0,19686.32,Summer,False,1.5565,"deficiency! the battery is not a 2 day battery, why is that?",False
ORD120038,ID2400295351,2019-06-07,Nickolson,"[('Toshika 750', 1), ('Olivia x460', 1), ('iAssist Line', 1)]",7770,61.34,-37.8203215,144.9640179,0,7831.34,Winter,True,0.5231,one star not user friendly.,False
ORD119219,ID3036576338,2019-06-04,Bakers,"[('Toshika 750', 1), ('Olivia x460', 1), ('Candle Inferno', 2), ('iStream', 2)]",6705,75.98,-37.8064876,145.0038278,25,5104.73,Winter,False,0.8509,great better than expected,True
ORD388573,ID2187770706,2019-05-07,Nickolson,"[('Universe Note', 1), ('Olivia x460', 1), ('Thunder line', 2)]",9035,79.63,-37.8085443,144.9634169,5,8662.88,Autumn,False,1.2421,very decent tablet. i was skeptical at first but it's performance surprised me. battery lasts a decent amount of time and connects beautifully into the digico ecosystem i already am in. would recommend to anyone who likes to watch videos/browse the web on the go or for children.,True
ORD412371,ID0576834912,2019-01-14,Nickolson,"[('Toshika 750', 1), ('Alcon 10', 2), ('Lucent 330S', 2)]",24680,99.64,-37.8186703,144.9844226,5,23545.64,Summer,True,1.3078,love this phone i could go for the s9 plus ... love this phone i could go for the s9 plus but because of the price difference and i dont see that big difference between s8+ and s9+ so i choose the s8+ even if i had to choose again i will go with the s8+ all the way great phone,True
ORD335666,ID0934024695,2019-09-12,Bakers,"[('Alcon 10', 1), ('iStream', 1), ('iAssist Line', 1)]",11325,79.82,-37.8045341,144.9875652,10,10272.32,Spring,False,0.9079,"this is the second pixel 4 xl i purchased this is the second pixel 4 xl i purchased, and this is a very good phone. this phone will give to my mom as a christmas gift.",True
ORD301652,ID4735836883,2019-09-22,Thompson,"[('Universe Note', 2), ('Alcon 10', 1)]",15850,77.82,-37.8039603,144.9499152,15,13550.32,Spring,False,1.0017,"great! so far. great working phone and reputable seller. now we own 2 note 4s and are very happy, thanks!",True
ORD384141,ID0207085518,2019-05-06,Bakers,"[('iStream', 1), ('iAssist Line', 2), ('Thunder line', 2)]",8960,67.49,-37.8106812,145.0122031,10,8131.49,Autumn,False,1.4945,"nice pixel! thanks, cool item!",True
ORD297210,ID6167417959,2019-07-29,Nickolson,"[('Alcon 10', 2), ('Candle Inferno', 2)]",18760,75.79,-37.81342,144.9657097,10,16959.79,Winter,True,0.6678,five stars my oldest son loves his phone!!,True
ORD233250,ID0127674045,2019-05-23,Bakers,"[('Universe Note', 2), ('Olivia x460', 1)]",8125,66.65,-37.8023074,144.9972956,5,7785.4,Autumn,True,0.8749,i have had some issues with this but not having a very helpful team to resolve issues.... i work and go to school i don't have time after time to beg and plead to get fixed...,False
ORD219795,ID0283334292,2019-07-03,Thompson,"[('Lucent 330S', 2), ('Olivia x460', 2), ('Toshika 750', 2)]",13550,80.51,-37.7991733,144.9520019,15,11598.01,Winter,False,1.5641,look new the phone looked new! i even got the phone before the scheduled date. the charger is a slow charger but everything work great.,True
ORD419285,ID5680172487,2019-10-31,Nickolson,"[('Universe Note', 2), ('Toshika 750', 1), ('iAssist Line', 2), ('Thunder line', 1)]",17850,102.67,-37.808919,144.9728584,5,17060.17,Spring,True,1.1157,"don't buy from this dealer. this is the 2nd universe s7 edge i have bought recently off digico, but this one i bought from a different dealer, and it's excellent.",True
ORD230133,ID2421601621,2019-12-26,Thompson,"[('Universe Note', 1), ('iAssist Line', 1), ('Candle Inferno', 2)]",6535,81.27,-37.8262873,144.952088,25,4982.52,Summer,False,1.5784,"good product, but the screen is easy to break even with a cover good product, but the screen is easy to break even with a cover",True
ORD333016,ID0576860042,2019-08-11,Bakers,"[('Candle Inferno', 2), ('Toshika 750', 1), ('iAssist Line', 2)]",9630,69.83,-37.8247351,144.9885515,10,8736.83,Winter,True,1.7427,promoting i would like to promote this product. i‚Äôm an instagram reviewer.,True
ORD447002,ID0260907398,2019-11-12,Bakers,"[('Candle Inferno', 1), ('iStream', 2)]",730,88.85,-37.8240632,145.0121007,15,709.35,Spring,False,2.157,great phone! love this products,True
ORD276090,ID0338577629,2019-07-23,Bakers,"[('iStream', 2), ('iAssist Line', 2), ('Toshika 750', 1), ('Universe Note', 1)]",12520,66.14,-37.8035311,144.9810821,15,10708.14,Winter,True,1.4376,selling stolen products phone came in and everything looked good. put in my sim card and phone and account were immediately blocked by at&t. went in to the store and at&t told me that the phone was reported stolen.,False
ORD086899,ID0260906811,2019-11-29,Bakers,"[('iStream', 1), ('Thunder line', 2), ('Candle Inferno', 2), ('iAssist Line', 2)]",9820,68.62,-37.8213165,145.0122742,5,9397.62,Spring,False,1.9581,charging problem in this phone üì± i don‚Äôt like this phone don‚Äôt bye wasting money problem is charging,False
ORD396536,ID4418536077,2019-05-11,Thompson,"[('Toshika 750', 2), ('iStream', 2)]",8940,84.14,-37.802642,144.9634102,15,7683.14,Autumn,True,1.82,"a good basic smartphone i managed to transfer the ex verizon phone to trac phone prepaid service and it has been very reliable although the lack of storage is irritating. on november 17, 2015, the cell phone upgraded to android 5.1 from android 4.4. and it works great",True
ORD377163,ID0157849660,2019-08-09,Nickolson,"[('Thunder line', 2), ('iStream', 2)]",4660,75.15,-37.8207776,144.9617034,0,4735.15,Winter,True,0.7316,highly recommended i love this phone! it has met all my expectations.,True
ORD166181,ID0686217601,2019-10-13,Bakers,"[('Olivia x460', 1), ('Thunder line', 2), ('Alcon 10', 2)]",23485,84.27,-37.8042009,144.9936079,5,22395.02,Spring,True,0.6607,only charges on wireless pad now and is extremely annoying! usb charging port quit working soon after purchased. only charges on wireless pad now and is extremely annoying!,False
ORD466844,ID0664378905,2019-08-26,Nickolson,"[('Alcon 10', 2), ('Universe Note', 2), ('Thunder line', 2), ('iStream', 1)]",29310,58.84,-37.8205146,144.9661206,0,29368.84,Winter,True,0.3697,it's ok but not sure it's worth it chance of misorder,False
ORD137101,ID0777776473,2019-05-24,Thompson,"[('Alcon 10', 2), ('pearTV', 2), ('Thunder line', 1), ('Candle Inferno', 2)]",33560,50.4,-37.8057282,144.9508162,10,30254.4,Autumn,False,0.8404,battery issue battery needs to be replaced already. just got this phone about a month ago.,False
ORD176907,ID0253027682,2019-10-22,Thompson,"[('Thunder line', 2), ('Universe Note', 2)]",11260,59.21,-37.8167212,144.9428384,0,11319.21,Spring,False,0.5843,... phone back as am sending in right back it suck doesn't keep charge for more than an hour always ... should be getting this phone back as am sending in right back it suck doesn't keep charge for more than an hour always hotttt like it's about to explode,False
ORD195280,ID5424203783,2019-07-17,Nickolson,"[('Universe Note', 1), ('pearTV', 2), ('Lucent 330S', 2), ('Thunder line', 1)]",20710,65.93,-37.822161,144.9783877,0,20775.93,Winter,False,0.8726,"tons of value, if you want a budget tablet look no further.",True
ORD137340,ID3967630098,2019-04-03,Thompson,"[('Olivia x460', 2), ('iAssist Line', 2), ('Thunder line', 2)]",11260,48.87,-37.8186057,144.9532638,5,10745.87,Autumn,False,0.8561,"not unlocked. do not buy from this. phone says unlocked, got it and it was still locked to verizon. call verizon and they can't do anything, so have to get a refund!!",False
ORD228470,ID4754200395,2019-07-22,Thompson,"[('pearTV', 2), ('Toshika 750', 1)]",16940,81.01,-37.8161428,144.9287483,5,16174.01,Winter,True,1.6568,good phone good product and works in venezuela without problem,True
ORD401886,ID0174796824,2019-08-01,Nickolson,"[('Olivia x460', 1), ('pearTV', 1), ('iStream', 2)]",7835,76.68,-37.8147543,144.9651706,10,7128.18,Winter,True,0.5755,still a solid phone! maybe it's because i came from using a broken old s4 but this phone is great. don't put the s pen in backwards though or you will break the detection mechanism!,True
ORD276479,ID4740822053,2019-09-09,Thompson,"[('Toshika 750', 1), ('Universe Note', 2), ('Alcon 10', 2)]",29120,74.7,-37.8037629,144.9498081,10,26282.7,Spring,False,1.0207,"doing a good job so far for the price, it meets the needs",True
ORD296261,ID0367098729,2019-02-16,Thompson,"[('pearTV', 2), ('Universe Note', 1), ('Thunder line', 1), ('iStream', 1)]",18400,82.92,-37.7986981,144.9614078,0,18482.92,Summer,False,2.0026,great phone i use it for work all day long and it is exactly what i needed easy to use just all around great phone,True
ORD102587,ID2189145400,2019-12-18,Nickolson,"[('Toshika 750', 1), ('Olivia x460', 1), ('Universe Note', 1), ('iStream', 2)]",9295,93.77,-37.8162017,144.95857,25,7065.02,Summer,True,1.0017,"great phone but not unlocked for every gsm network i generally love this phone for the specs, ram, memory, and awesome camera function but this phone is only good as well as its network provider only.",True
ORD329635,ID0033675617,2019-03-28,Thompson,"[('Lucent 330S', 1), ('Universe Note', 1), ('Candle Inferno', 1)]",5110,80.24,-37.8092742,144.9575938,0,5190.24,Autumn,True,1.0,great phone best phone out.,True
ORD281345,ID0317729593,2019-12-07,Thompson,"[('iStream', 2), ('Olivia x460', 1), ('Universe Note', 2), ('pearTV', 2)]",21045,58.42,-37.8093776,144.9564824,10,18998.92,Summer,False,0.9055,"roto no confiable ,perdi llamadas de medico estaba como nuevo y funciono' solo dos meses ,despu√©s se apaga solo ,pens√© que duraba poco la bater√≠a ,pero se apaga con la bater√≠a 100% cargada,no se debe comprar nada remanufacturafo",False
ORD033632,ID0305912782,2019-03-30,Bakers,"[('pearTV', 2), ('Candle Inferno', 1), ('Universe Note', 2)]",19950,81.96,-37.7987123,145.0034788,5,19034.46,Autumn,False,1.4505,xp 3.1 - very user friendly smartphone i am very pleased with this purchase. i have always liked xp cell phones. this phone is very user-friendly and very durable.,True
ORD490801,ID0412776177,2019-11-13,Bakers,"[('Lucent 330S', 1), ('Universe Note', 2)]",8130,72.31,-37.8123649,144.9956342,10,7389.31,Spring,False,0.266,four stars great phone meets my every needs,True
ORD115900,ID4735909079,2019-08-02,Thompson,"[('Olivia x460', 2), ('Universe Note', 1)]",5900,64.2,-37.804282,144.9497604,5,5669.2,Winter,False,0.9636,four stars works good so far,True
ORD480826,ID4716795161,2019-05-11,Thompson,"[('Toshika 750', 2), ('iAssist Line', 1), ('iStream', 2), ('Candle Inferno', 1)]",11595,65.09,-37.8188615,144.9530675,5,11080.34,Autumn,False,0.8676,love it bought it for my son and he loves it,True
ORD209637,ID0356088791,2019-04-12,Bakers,"[('Olivia x460', 1), ('Lucent 330S', 2), ('Thunder line', 1)]",5865,79.39,-37.8169481,144.996212,15,5064.64,Autumn,True,0.7787,"good phone great value! condition was as described, and phone works great so far. awesome deal!!",True
ORD464529,ID0597547959,2019-08-22,Nickolson,"[('pearTV', 1), ('iAssist Line', 2), ('Universe Note', 1), ('Lucent 330S', 1)]",15440,47.9,-37.815342,144.9661842,5,14715.9,Winter,False,0.4677,the first one quit working shortly after i got it. the next one becomes unresponsive to my voice at times and the only way to get it to work is through the app. i am not sure if it just this line or they are all this way.,False
ORD218367,ID1463620469,2019-07-04,Bakers,"[('Alcon 10', 2), ('Lucent 330S', 2)]",20360,51.69,-37.816506,145.0056917,25,15321.69,Winter,False,1.171,dailysales worst seller of refurbished phone. heating phone no official charger. mobile was freaking hot when i unboxed it. it was heating up randomly. seller was dailysales. don't buy from them,False
ORD072410,ID0846568273,2019-01-22,Nickolson,"[('Toshika 750', 1), ('Olivia x460', 2), ('iAssist Line', 1)]",8995,88.45,-37.8210776,144.9690997,10,8183.95,Summer,True,0.2792,excellent dual sim phone. duel sim phone. works well on t-mobile and i use the other sim slot for a local sim when i travel internationally.,True
ORD180618,ID4804855255,2019-03-16,Thompson,"[('iAssist Line', 2), ('pearTV', 2)]",17070,67.3,-37.7989805,144.9454345,10,15430.3,Autumn,True,1.531,"one star did not work with att, verizon or tmobile.",False
ORD037112,ID0411688750,2019-03-18,Nickolson,"[('iAssist Line', 2), ('Candle Inferno', 1), ('Thunder line', 2), ('Toshika 750', 1)]",13560,63.9,-37.8213234,144.9710059,0,13623.9,Autumn,False,0.3296,better than a $800 phone love this phone. battery life is incredible and storage is so much better than my last phone. can't find a better phone for the price!,True
ORD352455,ID0554206047,2019-11-13,Thompson,"[('Alcon 10', 2), ('pearTV', 2)]",30520,109.71,-37.7994564,144.9350124,0,30629.71,Spring,True,1.8136,"very slick! love it. very clean, couldn't even tell if it was refurb'd",True
ORD339463,ID1492169247,2019-07-18,Thompson,"[('Lucent 330S', 1), ('Candle Inferno', 2), ('Olivia x460', 2), ('Universe Note', 1)]",7990,73.36,-37.8010755,144.9639306,10,7264.36,Winter,True,1.9662,"works well. i really like the bigger screen (up from the 7""). easier to read, just as easier to use if not better.",True
ORD192591,ID1132023834,2019-03-11,Thompson,"[('Thunder line', 1), ('pearTV', 1), ('iStream', 2), ('Universe Note', 1)]",12240,78.46,-37.8189705,144.9465947,10,11094.46,Autumn,True,0.7022,"i‚Äôve been waiting for gold day to purchase an thunder plus and now, i‚Äôm enjoying learning what iassist can do. with a new sonos one and an thunder line, i have the makings of a really nice and well-integrated smart home. love it!",True
ORD151091,ID0420022670,2019-02-22,Bakers,"[('iStream', 2), ('Lucent 330S', 1), ('Olivia x460', 2), ('Candle Inferno', 1)]",4410,54.22,-37.8111528,144.9975025,10,4023.22,Summer,False,0.2376,i highly recommend that no one gets this product and it should ... it‚Äôs a scam!! the screen doesn‚Äôt respond properly so and the battery dies within one hour. i highly recommend that no one gets this product and it should be taken off digico immediately. i don‚Äôt want everyone to make the same mistake i did by buying this horrible product.,False
ORD093504,ID0253027668,2019-01-10,Thompson,"[('Alcon 10', 2), ('Toshika 750', 2), ('Thunder line', 2)]",30900,71.42,-37.8153646,144.941289,10,27881.42,Summer,False,0.59,"happy buyer 100% recommended, everything new, sealed",True
ORD492670,ID0362879159,2019-08-24,Thompson,"[('Candle Inferno', 1), ('iStream', 2), ('Lucent 330S', 2)]",3190,81.67,-37.7993917,144.9482026,10,2952.67,Winter,True,1.4818,great!!!! best phone/tablet/media devise i bought so far.,True
ORD323125,ID1492150973,2019-05-26,Thompson,"[('Toshika 750', 1), ('iAssist Line', 2)]",8770,64.32,-37.8150989,144.9522992,5,8395.82,Autumn,False,0.5334,"bargain price my wife loves the phone, really very good bang for your buck. the only thing that is confusing is that all external devices it connects to (bluetooth speakers, car's infotainment system etc.) - it picks it up as a p10 lite...not sure if it uses the same architecture or platform.",True
ORD403192,ID0767610869,2019-10-11,Nickolson,"[('Lucent 330S', 1), ('iStream', 1)]",1380,105.49,-37.8080311,144.9731813,5,1416.49,Spring,True,1.2185,five stars so far works good.,True
ORD438927,ID5656845889,2019-12-12,Bakers,"[('Candle Inferno', 1), ('pearTV', 2), ('Lucent 330S', 2)]",15510,63.37,-37.8174985,145.0055245,25,11695.87,Summer,False,1.2316,this device is not connecting to my network i belive ... this device is not connecting to my network i belive it is defective. i have never bought a phone that does not work. i am living in jamaica and this phone is not working. this is a father's day present i need some one to contact me regarding this item,False
ORD139251,ID0686217257,2019-03-25,Bakers,"[('pearTV', 1), ('iStream', 1)]",6460,66.0,-37.8073942,144.9986816,25,4911.0,Autumn,False,0.4194,just the right size love this phone. easy to use.,True
ORD236826,ID6131956019,2019-09-23,Nickolson,"[('pearTV', 1), ('Toshika 750', 1), ('Lucent 330S', 1)]",11860,80.92,-37.8257403,144.9816691,15,10161.92,Spring,False,1.3297,great phone great phone at a great price.,True
ORD404709,ID0634777774,2019-02-28,Thompson,"[('Thunder line', 1), ('iStream', 1)]",2330,94.08,-37.8148459,144.9375409,10,2191.08,Summer,True,0.8721,but this has worked out just fine for me i was hesitant to get a refurbished phone. but this has worked out just fine for me. i do not need the latest and greatest just one that works well... not a gamer on the phone....,True
ORD400911,ID6282174093,2019-12-10,Nickolson,"[('Thunder line', 2), ('Candle Inferno', 2), ('Universe Note', 1)]",8670,95.49,-37.823348,144.9784058,10,7898.49,Summer,True,0.9414,four stars good. thank you,True
ORD190286,ID3887190865,2019-07-15,Nickolson,"[('Olivia x460', 2), ('Toshika 750', 1)]",6770,64.79,-37.8169773,144.9768829,15,5819.29,Winter,False,0.6694,good phone reliable but too light,True
ORD379134,ID1657117689,2019-04-14,Bakers,"[('Lucent 330S', 1), ('Candle Inferno', 2), ('iStream', 2)]",2390,53.52,-37.8109943,145.010661,25,1846.02,Autumn,True,1.3614,not so good for the price i dislike the item because is not all what expected.,False
ORD356608,ID4315295088,2019-04-11,Bakers,"[('pearTV', 1), ('Candle Inferno', 2), ('Toshika 750', 1)]",11490,64.26,-37.8173216,144.9914538,10,10405.26,Autumn,False,0.8805,so far so good phone looks great! delivered as expected thank you!,True
ORD061573,ID6167489494,2019-12-23,Nickolson,"[('iStream', 1), ('Candle Inferno', 2)]",1010,89.69,-37.8179449,144.9621622,5,1049.19,Summer,True,0.6538,five stars this is the best android phone ever!!! i love it! see my full review of him here: http://newesc.com/pt/review-olivia-s6-edge-preco-caracteristicas-portugal/,True
ORD180386,ID0163643014,2019-03-02,Nickolson,"[('Toshika 750', 2), ('Lucent 330S', 2), ('iStream', 1)]",11250,74.54,-37.8192211,144.9733815,0,11324.54,Autumn,True,0.344,i will get one more great,True
ORD007828,ID4085902089,2019-10-24,Thompson,"[('Olivia x460', 1), ('Lucent 330S', 2), ('pearTV', 2), ('iAssist Line', 2)]",20755,81.67,-37.8255456,144.9515297,5,19798.92,Spring,False,1.4856,"great phone i love this phone. i switched to it from an alcon 4. i really like the big screen and all of the cool features it has that i'm still figuring out. and it was such a good deal, $100 less than the verizon website!",True
ORD460367,ID0310957465,2019-08-04,Thompson,"[('Universe Note', 1), ('Thunder line', 2), ('Candle Inferno', 1)]",8240,61.24,-37.820953,144.9475811,15,7065.24,Winter,True,0.9228,"malo no trabaja con el sim de metropcs, cero se√±al.",False
ORD240775,ID0576831352,2019-10-10,Bakers,"[('pearTV', 2), ('iStream', 2)]",12920,80.27,-37.8191884,144.9874733,25,9770.27,Spring,False,1.2299,this is very user friendly,True
ORD128602,ID1679232400,2019-10-03,Bakers,"[('Thunder line', 1), ('Olivia x460', 1), ('Lucent 330S', 1)]",4635,77.47,-37.8012929,144.9968149,25,3553.72,Spring,False,0.9788,love it phone had no faults wasn't disappointed just as described,True
ORD020439,ID4909776715,2019-02-14,Bakers,"[('Lucent 330S', 2), ('Toshika 750', 1)]",6780,76.65,-37.8215272,145.0018593,15,5839.65,Summer,True,1.4097,"great buy for those that like stock android. good phone. great looks, build and battery life. for a smooth stock android experience in an affordable package, look no further.",True
ORD314953,ID0364845726,2019-01-14,Bakers,"[('Alcon 10', 1), ('Olivia x460', 2), ('Candle Inferno', 1)]",11830,65.45,-37.801387,144.9806043,10,10712.45,Summer,False,1.6042,"product did not work on arrival. due to being ... product did not work on arrival. due to being out of country, i wasn't able to use the product within the 30 day return window and am now stuck with a $75 paperweight.",False
ORD241486,ID0579401853,2019-01-16,Nickolson,"[('pearTV', 1), ('Thunder line', 2), ('Olivia x460', 1)]",11895,67.91,-37.8190779,144.9738123,25,8989.16,Summer,False,0.3786,"easy set up, nice looking interface and i like the new slightly larger remote. i have a 1st gen with the little remote and misplace it all the time. and great price!",True
ORD336056,ID0370751656,2019-02-27,Bakers,"[('Lucent 330S', 2), ('iStream', 2)]",2760,74.31,-37.8116817,144.983426,10,2558.31,Summer,False,1.0551,"love, love this new little gadget.  has  made our lives so much easier.  it's like having our own personal secretary living here in the home.  we hardly need our cd's anymore, since iassist plays everything we need.  going to get the iassist lines soon for more rooms.  thanks!!",True
